Station Name,Street Address,City,ZIP,Station Phone,Access Days Time,EV Level2 EVSE Num,EV DC Fast Count,EV Network,Latitude,Longitude,Date Last Confirmed,ID,Updated At,EV Connector Types,Facility Type,EV Pricing
Domaine & Vins Gelinas,267 Rang de Saint-François-de-Pique-Dur,St-Sévère,G0X 3B0,819-264-5511,24 hours daily,2,,Non-Networked,46.38041531,-72.9295323,2022-02-10,82941,2022-04-26 16:04:15 UTC,J1772 TESLA,RESTAURANT,Free
Les Boises d'Amelie,3600 Ch du Lac Castor,Saint-Paulin,J0K 3G0,,For cottage owner use only,2,,Non-Networked,46.461235,-73.06348,2019-11-08,83003,2022-03-03 16:13:57 UTC,J1772 TESLA,RESTAURANT,Free
IKEA,1065 Plains Rd E,Burlington,L7T 4K1,905-681-5531,24 hours daily,,4,Non-Networked,43.328164,-79.828969,2022-04-13,83023,2022-04-26 16:04:15 UTC,CHADEMO J1772COMBO,SHOPPING_CENTER,Free
IKEA,2685 Iris St,Ottawa,K2C 3S4,613-670-8060  888-999-5783,"7am-10pm M-Sat, 7am-8pm Sun",,2,Non-Networked,45.349861,-75.785074,2022-02-10,83029,2022-04-26 16:04:15 UTC,CHADEMO J1772COMBO,SHOPPING_CENTER,Free
Boulevard Chevrolet Buick GMC Cadillac,374 Montee Industrielle-et-Commerciale,Rimouski,G5L 7C5,,8am-5pm M-F,2,1,Non-Networked,48.457449,-68.495154,2021-12-13,83103,2022-04-26 16:04:15 UTC,J1772 J1772COMBO,CAR_DEALER,Free
Gus Revenberg Chevrolet Buick GMC,10150 Tecumseh Rd E,Tecumseh,N8R 1A2,519-979-2800,Dealership business hours,,1,Non-Networked,42.314019,-82.916044,2022-03-04,83124,2022-04-26 16:04:15 UTC,J1772COMBO,CAR_DEALER,Free
Heuvelmans Chevrolet,755 Grand Ave W,Chatham,N7L 4L3,,24 hours daily,1,1,Non-Networked,42.395337,-82.212924,2022-04-13,83126,2022-04-26 16:04:15 UTC,J1772 J1772COMBO,CAR_DEALER,Free
Tru-Nor Truck Centre,1035 Falconbridge Rd,Sudbury,P3A 4M9,705-560-6625 x209,24 hours daily,1,,Non-Networked,46.520264,-80.92157,2022-04-13,83130,2022-04-26 16:04:15 UTC,TESLA,CAR_DEALER,Free
Mr. Janitorial Supplies,1125 Kerrisdale Blvd,Newmarket,L3Y 8W1,,,2,,Non-Networked,44.078672,-79.432768,2022-01-11,83218,2022-04-26 16:04:15 UTC,J1772 TESLA,OFFICE_BLDG,
Petro-Canada,3305 Dorchester Rd,Dorchester,N0L 1G0,800-668-0220,24 hours daily,1,2,PETROCAN,42.95611,-81.061756,2021-12-13,83230,2022-06-03 20:40:05 UTC,CHADEMO J1772 J1772COMBO,GAS_STATION,L2: Free; DC Fast: $0.33 per minute
Petro-Canada,1586 Centennial Dr,Kingston,K7P 0C7,613-389-8010  800-668-0220,24 hours daily,1,2,PETROCAN,44.280454,-76.570333,2021-12-13,83232,2022-06-03 20:40:05 UTC,CHADEMO J1772 J1772COMBO,GAS_STATION,L2: Free; DC Fast: $0.33 per minute
Petro-Canada,638 County Rd 41,Napanee,K7R 3L2,800-668-0220,24 hours daily,1,2,PETROCAN,44.268417,-76.967826,2021-12-13,83233,2022-06-03 20:40:05 UTC,CHADEMO J1772 J1772COMBO,GAS_STATION,L2: Free; DC Fast: $0.33 per minute
Petro-Canada,235 Steeles Ave E,Milton,L9T 1Y2,800-668-0220,24 hours daily,1,2,PETROCAN,43.52206,-79.893905,2021-06-07,83236,2022-06-03 20:40:05 UTC,CHADEMO J1772 J1772COMBO,GAS_STATION,L2: $0.33 per minute; DC Fast: $0.33 per minute
Reaume Chevrolet Buick GMC,500 Front Rd,Windsor,N9J 1Z9,519-734-7844,24 hours daily,1,1,Non-Networked,42.241722,-83.102857,2022-03-04,83263,2022-04-26 16:04:15 UTC,J1772 J1772COMBO,CAR_DEALER,Free
Tourism Goderich,51 Kingston St,Goderich,N7A 3K3,519-524-6600,24 hours daily,3,,Non-Networked,43.742017,-81.70931,2022-04-13,83270,2022-04-26 16:04:15 UTC,J1772 TESLA,MUNI_GOV,$1.50 per hour
Westway Motel - Cochrane,83 Highway 11 W,Cochrane,P0L 1C0,705-272-4285  877-772-4285,7:30am-11pm daily,2,,Non-Networked,49.059159,-81.036761,2022-04-13,83362,2022-04-26 16:04:15 UTC,J1772 TESLA,HOTEL,Free for guests; $10 per session for nonguests
DHS Engineering Inc,1594 Highway 246,Tatamagouche,B0K 1V0,902-657 2933,24 hours daily,2,,Non-Networked,45.643204,-63.358515,2018-05-07,83418,2021-06-07 17:08:43 UTC,J1772 TESLA,OFFICE_BLDG,Free
IKEA,1475 The Queensway,Toronto,M8Z 1T3,416-646-8182 x2406  844-835-2348,24 hours daily,,2,Non-Networked,43.618926,-79.534487,2022-03-04,83428,2022-04-26 16:04:15 UTC,CHADEMO J1772COMBO,SHOPPING_CENTER,Free
IKEA,200 Interchange Way,Vaughan,L4K 5C3,866-866-4532  844-835-2348,24 hours daily,,2,Non-Networked,43.787562,-79.530244,2022-03-04,83432,2022-04-26 16:04:15 UTC,CHADEMO J1772COMBO,SHOPPING_CENTER,Free
Lanoue Chevrolet,75 Mill St W,Tillbury,N0P 2L0,888-887-9696,Dealership business hours,1,1,Non-Networked,42.262758,-82.446151,2022-03-04,83443,2022-04-26 16:04:15 UTC,J1772 J1772COMBO,CAR_DEALER,Free
Regina Motor Products,Albert St S,Regina,S4P 3A8,306-585-1770,Dealership business hours; customer use only,1,1,Non-Networked,50.3927531,-104.6205566,2022-06-10,83449,2022-06-10 20:48:01 UTC,J1772 J1772COMBO,CAR_DEALER,Free
Lounsbury Chevrolet,2155 Main St,Moncton,E1C 9P2,506-857-4300  888-569-1699,24 hours daily,1,1,Non-Networked,46.07603985,-64.81053449,2021-09-09,83576,2022-04-26 16:04:15 UTC,J1772 J1772COMBO,CAR_DEALER,Free
Maritime Geothermal,170 Plantation Rd,Petitcodiac,E4Z 6P3,506-756-8135,8am-5pm M-F,2,,Non-Networked,45.939523,-65.157957,2021-09-09,83577,2022-04-26 16:04:15 UTC,J1772 TESLA,OTHER,Free
Moose Hotel & Suites,345 Banff Ave,Banff,T1L 1H8,403-760-8570,24 hours daily; for guest use only,3,,Tesla Destination,51.180729,-115.569795,2021-11-02,83624,2022-04-28 20:01:31 UTC,J1772 TESLA,HOTEL,Free
Addison Chevrolet,1220 Eglinton Ave E,Mississauga,L5N 5Z1,905-238-2886,Dealership business hours; for client use only,1,1,Non-Networked,43.631541,-79.624115,2022-02-10,83635,2022-04-28 20:01:31 UTC,J1772 J1772COMBO,CAR_DEALER,Free
Chevrolet GMC Roberval,321 boul.,Roberval,G8H 1Z4,418-275-1331,24 hours daily,1,1,Non-Networked,48.502897,-72.22299,2021-12-13,83647,2022-04-26 16:04:15 UTC,J1772 J1772COMBO,CAR_DEALER,Free
Thibault Chevrolet,375 boul. Rideau,Rouyn-Noranda,J9X 5Y7,819-762-1751,24 hours daily,1,1,Non-Networked,48.245541,-79.045223,2021-12-13,83759,2022-04-26 16:04:15 UTC,J1772 J1772COMBO,CAR_DEALER,Free
Ski Val St-Come,501 rue Val Saint-Come,St-Come,J0K 2B0,800-363-2766,24 hours daily; for customer use only,4,,Non-Networked,46.271323,-73.862351,2021-12-13,83818,2022-04-28 20:01:31 UTC,J1772 TESLA,OTHER_ENTERTAINMENT,Free
Alectra Utilities,161 Cityview Blvd,Vaughan,L4H 0A9,905-417-6900,24 hours daily,,2,Non-Networked,43.850021,-79.551219,2020-01-06,83841,2021-06-07 17:08:43 UTC,CHADEMO J1772COMBO,OFFICE_BLDG,Free
Laplante Chevrolet Cadillac,640 Main St,West Hawkesbury,K6A 2J3,613-632-2764,24 hours daily,1,1,Non-Networked,45.611323,-74.624095,2022-03-04,83882,2022-04-28 20:01:31 UTC,J1772 J1772COMBO,CAR_DEALER,Free
BVD Petroleum - Comber - Tesla Supercharger,7018 Industrial Drive,Comber,N0P 1J0,877-798-3752,24 hours daily; for Tesla use only,,8,Tesla,42.239116,-82.550227,2021-10-11,83915,2021-11-04 18:37:47 UTC,TESLA,GAS_STATION,$0.44 per minute above 60 kW and $0.22 per minute at or below 60 kW
Ramada Cornwall - Tesla Supercharger,805 Brookdale Avenue,Cornwall,K6J 4P3,877-798-3752,24 hours daily; for Tesla use only,,6,Tesla,45.023716,-74.748123,2021-10-11,83919,2021-11-04 18:37:47 UTC,TESLA,HOTEL,$0.44 per minute above 60 kW and $0.22 per minute at or below 60 kW
Town of Whitewood,731 Lalonde St,Whitewood,S0G 5C0,306-735-2210,24 hours daily,3,,Non-Networked,50.329089,-102.266694,2021-06-07,83951,2022-04-26 16:04:15 UTC,J1772 TESLA,MUNI_GOV,Free
Northstar Ford,540 Memorial Dr,Fort McMurray,T9K 4V9,780-791-7911  780-804-1611,7am-7pm daily,1,1,Non-Networked,56.76087334,-111.419394,2021-11-02,83955,2022-04-26 16:04:15 UTC,J1772 J1772COMBO,CAR_DEALER,Free
Port Hope Travel Center - Tesla Supercharger,6498 Telephone Rd.,Port Hope,L1A3V6,877-798-3752,24 hours daily; for Tesla use only,,8,Tesla,43.971602,-78.285397,2021-10-11,83973,2021-11-04 18:37:47 UTC,TESLA,TRAVEL_CENTER,$0.44 per minute above 60 kW and $0.22 per minute at or below 60 kW
ImPark,5775 Yonge St,Toronto,M2M 4J1,416-369-1801,24 hours daily,2,1,Non-Networked,43.78332,-79.416048,2022-04-13,83985,2022-04-26 16:04:15 UTC,CHADEMO J1772 J1772COMBO,PAY_GARAGE,"Level 2: $5 for first hour, $12 per hour after; DC Fast: $5 per hour for first hour, $24 per hour after"
Societe Laurentides,4660 boul. de Shawinigan-Sud,Shawinigan-Sud,G9N 6T5,,24 hours daily; for employees only,3,,Non-Networked,46.495821,-72.718547,2020-04-10,84014,2022-04-28 20:01:31 UTC,J1772 TESLA,UTILITY,Free
Societe Laurentides,4660 boul. de Shawinigan-Sud,Shawinigan-Sud,G9N 6T5,,For employee use only,2,,Non-Networked,46.495821,-72.718547,2020-04-10,84015,2022-04-28 20:01:31 UTC,J1772 TESLA,UTILITY,Free
Tim Horton's,525 Highway 11 W,Fort Frances,P9A 3J3,807-274-3953,24 hours daily,,1,Non-Networked,48.61012497,-93.41509173,2022-04-13,84130,2022-04-26 16:04:15 UTC,CHADEMO J1772COMBO,RESTAURANT,
ImPark - Citibank Building,123 Front St W,Toronto,M5J 2M3,416-864-0848,24 hours daily,,1,Non-Networked,43.645275,-79.38256,2021-04-12,84140,2022-04-08 18:15:10 UTC,CHADEMO J1772COMBO,PAY_GARAGE,$24 per hour
BC Hydro - Trail Bay Mall,5755 Cowrie St,Sechelt,V0N 3A0,604-740-8469,24 hours daily,,2,BCHYDRO,49.4721921,-123.7619572,2021-12-13,84159,2022-04-26 16:04:15 UTC,CHADEMO J1772COMBO,PARKING_LOT,Free
Westbank United Church,3678 Brown Rd,Central Okanagan,V4T 1Z1,855-900-7584,24 hours daily,,2,Greenlots,49.830239,-119.628203,2020-04-10,84164,2021-06-07 17:08:43 UTC,CHADEMO J1772COMBO,PLACE_OF_WORSHIP,$0.35 per kWh
Gourmet de l'Erabliere,104 Rte Cliche-Golden,Frampton,G0R 1M0,418-479-5226,11am-7pm F-Sun,2,,Non-Networked,46.461102,-70.806563,2021-07-15,84187,2022-04-26 16:04:15 UTC,J1772 TESLA,RESTAURANT,Free for clients; $7/hour for non clients during business hours
Huber Bannister Chevrolet,933 Westminster Ave W,Penticton,V2A 1L1,250-493-2333,"8am-5pm M-F, 8am-4pm Sat",1,1,Non-Networked,49.497712,-119.60592,2022-04-13,84225,2022-04-26 16:04:15 UTC,J1772 J1772COMBO,CAR_DEALER,Free
Addison Chevrolet GMC,6600 Turner Valley Rd,Mississauga,L5N 5Z1,844-956-3735,Business hours,1,1,Non-Networked,43.597203,-79.740092,2022-02-10,84322,2022-04-26 16:04:15 UTC,J1772 J1772COMBO,CAR_DEALER,Free
Ray Cullen Chevrolet,730 Wharncliffe Rd S,London,N6J 2N7,519-686-7282,24 hours daily,,1,Non-Networked,42.947677,-81.258042,2022-03-04,84378,2022-04-26 16:04:15 UTC,J1772COMBO,CAR_DEALER,Free
Clayoquot Sound Community Theatre,384 Campbell St,Tofino,V0R 2Z0,250-725-3229,24 hours daily; parking fee required,3,,Tesla Destination,49.152761,-125.905023,2019-11-08,84446,2021-06-07 17:08:43 UTC,J1772 TESLA,MUNI_GOV,Free
ImPark,175 Bloor St E,Toronto,M5S 2C6,416-369-1801,24 hours daily,1,1,Non-Networked,43.668613,-79.394558,2021-04-12,84524,2022-04-08 18:15:10 UTC,CHADEMO J1772 J1772COMBO,PAY_GARAGE,Free
ImPark - Lucliff Place,700 Bay St,Toronto,M5G 2K4,,24 hours daily,4,1,Non-Networked,43.658226,-79.385065,2021-04-12,84526,2022-04-07 20:03:38 UTC,CHADEMO J1772 J1772COMBO,PAY_GARAGE,
Triovest,80 Courtneypark Dr E,Mississauga,L5T 2Y3,888-908-8303,24 hours daily; EV Route App,,2,Non-Networked,43.637139,-79.691526,2020-11-09,84532,2022-04-07 14:11:06 UTC,CHADEMO J1772COMBO,SHOPPING_CENTER,Variable prices
EVC Canada,80 Allstate Pkwy,Markham,L3R 8C5,877-297-8050,24 hours daily,,2,EV Connect,43.853502,-79.368117,2022-04-13,84538,2022-04-26 16:04:15 UTC,CHADEMO J1772COMBO,OFFICE_BLDG,$3.95 session fee + $0.20 per minute or $16.95 flat station fee
Tim Horton's,1527 Water St,Peterborough,K9J 6X5,705-876-0342,24 hours daily,,1,Non-Networked,44.3508257,-78.3013815,2022-01-11,84549,2022-04-26 16:04:15 UTC,CHADEMO J1772COMBO,RESTAURANT,Free
Auberge du Lac-a-l'Eau Claire,500 Ch du Lac-a- l'Eau-Claire,St-Alexis-des-Monts,J0K 1V0,877-265-3185,24 hours daily,4,,Non-Networked,46.543158,-73.087906,2021-12-13,84565,2022-04-26 16:04:15 UTC,J1772 TESLA,HOTEL,Free
Powertech Labs,12388 88th Ave,Surrey,V3W 7R7,604-590-7500,8am-6pm M-F; For employees only,3,2,Non-Networked,49.160759,-122.879765,2022-04-13,84567,2022-05-25 19:58:29 UTC,CHADEMO J1772 J1772COMBO,RESEARCH_FACILITY,Free
Les Promenades Drummondville - Tesla Supercharger,755 boul. Rene-Levesque,Drummondville,J2C 6Y7,877-798-3752,24 hours daily; for Tesla use only,,8,Tesla,45.899084,-72.51942,2021-10-11,84696,2021-11-04 18:37:47 UTC,TESLA,SHOPPING_CENTER,$0.44 per minute above 60 kW and $0.22 per minute at or below 60 kW
Marc Cossette Inc,1450 105e Av,Shawinigan-Sud,G9P 1M3,819-536-2611,24 hours daily,3,,Non-Networked,46.523182,-72.749833,2022-01-11,84701,2022-04-26 16:04:15 UTC,J1772 TESLA,UTILITY,Free
Municipalite St-Adelphe,601 rue Principale,Saint-Adelphe,G0X 2G0,418-322-5721,24 hours daily,3,,Non-Networked,46.732594,-72.432509,2021-12-13,84707,2022-04-26 16:04:15 UTC,J1772 TESLA,MUNI_GOV,Free
Ville de Becancour Hôtel de Ville,1295 Av Nicolas-Perrot,Becancour,G9H 3V4,819-294-6500,24 hours daily,3,,Non-Networked,46.403617,-72.275008,2021-11-02,84723,2022-04-26 16:04:15 UTC,J1772 TESLA,MUNI_GOV,Free
Comfort Inn,1255 boul. Duplessis,Québec City,G2G 2B4,418-872-5900,24 hours daily; for guest use only,2,,Non-Networked,46.7881046,-71.3529763,2021-12-13,84734,2022-04-28 20:01:31 UTC,J1772 TESLA,HOTEL,L2: $8 per session; Tesla: $10 per session
Country Grocer,374 Lower Ganges Rd,Salt Spring Island,V8K 2V7,250-537-4144,24 hours daily,4,,Non-Networked,48.860785,-123.510723,2021-09-09,84772,2022-04-26 16:04:15 UTC,J1772 TESLA,GROCERY,Free
VanDusen Chevrolet Buick GMC,425 Bayly St W,Ajax,L1S 6M3,905-427-2500,24 hours daily,1,1,Non-Networked,43.83961,-79.033281,2021-06-07,84910,2022-04-26 16:04:15 UTC,J1772 J1772COMBO,CAR_DEALER,Free
Laplante Chevrolet Buick GMC,632 Principale St,Casselman,K0A 1M0,866-393-5922,24 hours daily,1,1,Non-Networked,45.307333,-75.081801,2021-06-07,84968,2022-04-26 16:04:15 UTC,J1772 J1772COMBO,CAR_DEALER,Free
Canmore Rocky Mountain Inn - Tesla Supercharger,1719 Bow Valley Trail,Canmore,T1W 1L7,877-798-3752,24 hours daily; for Tesla use only,,4,Tesla,51.100208,-115.359179,2021-10-11,85030,2021-11-04 18:37:47 UTC,TESLA,HOTEL,$0.44 per minute above 60 kW and $0.22 per minute at or below 60 kW
BJ Teriyaki House & Waffles - Tesla Supercharger,2323 7 Ave,Fort MacLeod,T0L 0Z0,877-798-3752,24 hours daily; for Tesla use only,,8,Tesla,49.724901,-113.397189,2021-10-11,85034,2021-11-04 18:37:47 UTC,TESLA,RESTAURANT,$0.44 per minute above 60 kW and $0.22 per minute at or below 60 kW
Best Western Plus - Tesla Supercharger,3969 Crawford Ave.,Merritt,V1K0A4,877-798-3752,24 hours daily; for Tesla use only,,8,Tesla,50.124377,-120.751136,2021-10-11,85050,2021-11-04 18:37:47 UTC,TESLA,HOTEL,$0.44 per minute above 60 kW and $0.22 per minute at or below 60 kW
Best Western Plus - Tesla Supercharger,1925 Laforme Blvd.,Revelstoke,V0E 2S0,877-798-3752,24 hours daily; for Tesla use only,,4,Tesla,51.009594,-118.218857,2021-10-11,85067,2021-11-04 18:37:47 UTC,TESLA,HOTEL,$0.44 per minute above 60 kW and $0.22 per minute at or below 60 kW
Park Place - Tesla Supercharger,100 Mapleview Drive East,Barrie,L4N 9H6,877-798-3752,24 hours daily; for Tesla use only,,8,Tesla,44.341123,-79.678975,2021-10-11,85109,2021-11-04 18:37:47 UTC,TESLA,SHOPPING_CENTER,$0.44 per minute above 60 kW and $0.22 per minute at or below 60 kW
Tim Horton's,1290 Colborne St E,Brantford,N3T 5L9,519-759-7155,24 hours daily,,1,Non-Networked,43.14943609,-80.1870915,2022-04-13,85116,2022-04-26 16:04:15 UTC,CHADEMO J1772COMBO,RESTAURANT,
Tim Horton's,51 Talbot St E,Cayuga,N0A 1E0,905-772-8100,24 hours daily,,1,Non-Networked,42.951401,-79.849479,2022-04-13,85126,2022-04-26 16:04:15 UTC,CHADEMO J1772COMBO,RESTAURANT,
Tim Horton's,33 3rd St,Chatham,N7M 2M4,519-358-1049,24 hours daily,,1,Non-Networked,42.40411,-82.189163,2022-04-13,85127,2022-04-26 16:04:15 UTC,CHADEMO J1772COMBO,RESTAURANT,
Tim Horton's,501 Hume St,Collingwood,L9Y 3J6,705-445-1951,24 hours daily,,1,Non-Networked,44.499925,-80.196829,2022-04-13,85129,2022-04-26 16:04:15 UTC,CHADEMO J1772COMBO,RESTAURANT,
Tim Horton's,1167 Garrison Rd,Fort Erie,L2A 1N8,905-871-9997,24 hours daily,,1,Non-Networked,42.904444,-78.958962,2022-04-13,85138,2022-04-26 16:04:15 UTC,CHADEMO J1772COMBO,RESTAURANT,
Tim Horton's,150 Talisman Dr,Gravenhurst,P1P 1K8,705-687-4709,24 hours daily,,1,Non-Networked,44.908049,-79.368723,2022-02-10,85143,2022-04-26 16:04:15 UTC,CHADEMO J1772COMBO,RESTAURANT,
Casablanca Winery Inn & Spa - Tesla Supercharger,4 Windward Drive,Grimsby,L3M 4E8,877-798-3752,24 hours daily; for Tesla use only,,8,Tesla,43.209697,-79.600861,2021-10-11,85148,2021-11-04 18:37:47 UTC,TESLA,INN,$0.44 per minute above 60 kW and $0.22 per minute at or below 60 kW
Tim Horton's,1470 Highway 6,Hamilton,L8N 2Z7,905-690-2200,24 hours daily,,1,Non-Networked,43.376783,-80.00409,2022-02-10,85149,2022-04-26 16:04:15 UTC,CHADEMO J1772COMBO,RESTAURANT,Free
Huntsville Place Mall - Tesla Supercharger,70 King William Street,Huntsville,P1H 2A5,877-798-3752,24 hours daily; for Tesla use only,,8,Tesla,45.333611,-79.206703,2021-10-11,85155,2021-11-04 18:37:47 UTC,TESLA,SHOPPING_MALL,$0.44 per minute above 60 kW and $0.22 per minute at or below 60 kW
King's Crossing Fashion Outlet Centre - Tesla Supercharger,97  Dalton Avenue,Kingston,K7K 0C4,877-798-3752,24 hours daily; for Tesla use only,,8,Tesla,44.267279,-76.503377,2021-10-11,85163,2021-11-04 18:37:47 UTC,TESLA,SHOPPING_CENTER,$0.44 per minute above 60 kW and $0.22 per minute at or below 60 kW
Tim Horton's,16815 Highway 12,Midland,L4R 0A9,705-528-1925,24 hours daily,,1,Non-Networked,44.729823,-79.873715,2022-02-10,85185,2022-04-26 16:04:15 UTC,CHADEMO J1772COMBO,RESTAURANT,Parking fee required
Tim Horton's,8089 Portage Rd,Niagara Falls,L2G 5Z2,905-295-6800,24 hours daily,,1,Non-Networked,43.059827,-79.053274,2022-01-11,85198,2022-04-26 16:04:15 UTC,CHADEMO J1772COMBO,RESTAURANT,Free
Tim Horton's,228 Wyecroft Rd,Oakville,L6K 3X7,905-337-5250,24 hours daily,,1,Non-Networked,43.446888,-79.694967,2022-01-11,85201,2022-04-26 16:04:15 UTC,CHADEMO J1772COMBO,RESTAURANT,Free
Parry Sound Inn & Suites - Tesla Supercharger,292 Louisa Street,Parry Sound,P2A 3C1,877-798-3752,24 hours daily; for Tesla use only,,8,Tesla,45.345586,-80.006162,2021-10-11,85207,2021-11-04 18:37:47 UTC,TESLA,HOTEL,$0.44 per minute above 60 kW and $0.22 per minute at or below 60 kW
Tim Horton's,429 Main St W,Port Colborne,L3K 3W2,905-834-8857,24 hours daily,,1,Non-Networked,42.899117,-79.258793,2022-01-11,85212,2022-04-26 16:04:15 UTC,CHADEMO J1772COMBO,RESTAURANT,Free
Tim Horton's,1399 Colborne Rd,Sarnia,N7V 3L8,519-332-3200,24 hours daily,,1,Non-Networked,43.005069,-82.388348,2022-01-11,85216,2022-04-26 16:04:15 UTC,CHADEMO J1772COMBO,RESTAURANT,Free
Tim Horton's,401 Simcoe St,Tillsonburg,N4G 5V7,519-688-0896,24 hours daily,,1,Non-Networked,42.853153,-80.689851,2022-03-04,85226,2022-04-26 16:04:15 UTC,CHADEMO J1772COMBO,RESTAURANT,Free
Tim Horton's,560 Broadway St,Tillsonburg,N4G 3S7,519-842-8979,24 hours daily,,1,Non-Networked,42.87722,-80.744461,2022-03-04,85227,2022-04-26 16:04:15 UTC,CHADEMO J1772COMBO,RESTAURANT,Variable price
IKEA,15 Provost Dr,North York,M2K 2X9,866-866-4532,24 hours daily,,2,Non-Networked,43.768058,-79.369078,2022-01-11,85232,2022-04-26 16:04:15 UTC,CHADEMO J1772COMBO,SHOPPING_CENTER,Free
ImPark - Sun Life Centre,200 King St W,Toronto,M5H 3T4,416-369-1801,24 hours daily; for client use only,,1,Non-Networked,43.647915,-79.385723,2020-01-06,85235,2022-04-28 20:01:31 UTC,CHADEMO J1772COMBO,PAY_GARAGE,Free
ImPark - University Centre,393 University Ave,Toronto,M5G 2J5,416-369-1801,5am-6pm; parking fee required,,1,Non-Networked,43.653998,-79.387212,2022-03-04,85241,2022-04-26 16:04:15 UTC,CHADEMO J1772COMBO,PAY_GARAGE,"$5 first hour, $0.20 per min after first hour"
ImPark - MaRS Centre,661 University Ave,Toronto,M5G 1M1,416-369-1801,24 hours daily; parking fee,4,1,Non-Networked,43.659265,-79.390105,2022-04-13,85250,2022-04-26 16:04:15 UTC,CHADEMO J1772 J1772COMBO,PAY_GARAGE,Free
RBC Royal Bank,6880 Financial Dr,Mississauga,L5N 7Y5,905-286-7100,24 hours daily,,2,EV Connect,43.608983,-79.74574,2022-04-13,85300,2022-04-26 16:04:15 UTC,CHADEMO J1772COMBO,BANK,$12 per hour
Royal Bank Plaza,200 Bay St,Toronto,M5J 2J1,416-861-0542,24 hours daily,4,1,Non-Networked,43.646302,-79.379753,2019-01-14,85314,2021-06-07 17:08:43 UTC,CHADEMO J1772 J1772COMBO,OFFICE_BLDG,"Level 2: $1.50 per session + $3.00 charge rate + $0.20 per min dwell charge_x000D_
DC fast: $3.95 per session + $5.00 charge rate + $0.40 per min dwell charge"
ImPark - Atria,2235 Sheppard Ave E,Toronto,M2J 5C2,416-369-1801,24 hours daily,3,1,Non-Networked,43.772736,-79.327856,2022-03-04,85315,2022-04-26 16:04:15 UTC,CHADEMO J1772 J1772COMBO,PAY_GARAGE,Level 2: $12 per hour; DC Fast: $24 per hour
Toronto and Region Conservation - Head Office,101 Exchange Ave,Vaughan,L4K 5R6,416-661-6600,24 hours daily,2,1,Non-Networked,43.78603,-79.532061,2020-01-06,85319,2021-06-07 17:08:43 UTC,CHADEMO J1772 J1772COMBO,PARK,Free
La Municipalite de Cap-St-Ignace,180 Place de l'Eglise,Cap-Saint-Ignace,G0R 1H0,418-246-5631,24 hours daily,2,,Non-Networked,47.037654,-70.456662,2021-04-12,85324,2022-04-07 20:01:15 UTC,J1772 TESLA,MUNI_GOV,Free
Archibald,1021 boul. du Lac,Lac Beauport,G3B 0X1,418-841-2224,24 hours daily; for guest use only,2,,Non-Networked,46.937609,-71.309035,2021-10-12,85329,2022-04-28 20:01:31 UTC,J1772 TESLA,RESTAURANT,Free
Garibaldi Village Shopping Centre - Tesla Supercharger,40167 Glenalder Pl,Squamish,V8B 0G2,877-798-3752,24 hours daily; for Tesla use only,,10,Tesla,49.736836,-123.133671,2021-10-11,85349,2021-11-04 18:37:47 UTC,TESLA,SHOPPING_CENTER,$0.44 per minute above 60 kW and $0.22 per minute at or below 60 kW
Sheraton Red Deer - Tesla Supercharger,3310 50 Avenue,Red Deer,T4N 3X9,877-798-3752,24 hours daily; for Tesla use only,,4,Tesla,52.251899,-113.814659,2021-10-11,85366,2021-11-04 18:37:47 UTC,TESLA,HOTEL,$0.44 per minute above 60 kW and $0.22 per minute at or below 60 kW
Woodgrove Centre - Tesla Supercharger,6631 N Island Hwy,Nanaimo,V9T 4T7,877-798-3752,24 hours daily; for Tesla use only,,8,Tesla,49.237897,-124.054727,2021-10-11,86805,2021-11-04 18:37:47 UTC,TESLA,SHOPPING_CENTER,$0.44 per minute above 60 kW and $0.22 per minute at or below 60 kW
Scotiabank,4220 Sheppard Ave E,Agincourt,M1S 1T5,416-297-2460,24 hours daily,,1,EV Connect,43.785931,-79.277692,2022-04-13,87662,2022-04-26 16:04:15 UTC,CHADEMO J1772COMBO,BANK,
Tim Horton's,1180 Wilson St,Ancaster,L9G 3K9,905-648-5222,24 hours daily,1,1,Non-Networked,43.196149,-80.020687,2022-04-13,87663,2022-04-26 16:04:15 UTC,CHADEMO J1772 J1772COMBO,RESTAURANT,
Scotiabank,169 John St N,Arnprior,K7S 2N8,613-623-7314,24 hours daily,,1,Non-Networked,45.434577,-76.352803,2017-10-03,87664,2022-04-06 20:42:57 UTC,CHADEMO J1772COMBO,BANK,
Scotiabank,5385 Lakeshore Rd E,Burlington,L7L 1C8,905-637-5231 x4400,24 hours daily,,1,EV Connect,43.368081,-79.730415,2022-04-13,87668,2022-04-26 16:04:15 UTC,CHADEMO J1772COMBO,BANK,"$3.95 fee, $0.20 per minute"
Scotiabank,85 Bridge St,Carleton Place,K7C 2V4,613-253-5400,24 hours daily,,1,EV Connect,45.138635,-76.14444,2022-04-13,87670,2022-04-26 16:04:15 UTC,CHADEMO J1772COMBO,BANK,
Frost GM,150 Bovaird Dr,Brampton,L7A 0H3,905-459-0126,"9am-8pm M-T, 9am-5pm Fri-Sat",,1,Non-Networked,43.704824,-79.789007,2022-04-13,87685,2022-04-26 16:04:15 UTC,J1772COMBO,CAR_DEALER,Free
True North Chevrolet Cadillac,1370 Seymour St,North Bay,P1B 9V6,888-472-1210,"8:30am-7pm M-Th, 8:30am-6pm F, 9am-5pm Sat; for customers only",,2,Non-Networked,46.308712,-79.438416,2022-01-11,87745,2022-04-28 20:01:31 UTC,J1772COMBO,CAR_DEALER,Free
Quantrill Chevrolet,265 Peter St,Port Hope,L1A 3Z4,888-495-4937  905-885-4573,"8am-8pm Mon-Thur, 8AM-6pm Fri, 8am-5pm Sat",,1,Non-Networked,43.954281,-78.267775,2022-01-11,87746,2022-04-28 20:01:31 UTC,J1772COMBO,CAR_DEALER,Free
Scotiabank,745 Hewiston St,Thunder Bay,P7B 6B5,807-623-5626,24 hours daily,,1,Non-Networked,48.405391,-89.257744,2021-04-12,88062,2022-04-06 20:44:07 UTC,CHADEMO J1772COMBO,BANK,Free
Scotiabank,1 Pine St S,Timmins,P4N 2J5,705-268-8030,24 hours daily,,1,Non-Networked,48.475881,-81.328829,2021-04-12,88063,2022-04-06 20:43:43 UTC,CHADEMO J1772COMBO,BANK,Free
Scotiabank,541 James St,Wallaceburg,N8A 2P1,519-627-2268,24 hours daily,,1,EV Connect,42.5936,-82.384908,2022-04-13,88072,2022-04-26 16:04:15 UTC,CHADEMO J1772COMBO,BANK,Variable prices
Scotiabank,12 Fischer-Hallman Rd N,Waterloo,N2L 2X3,519-883-5200,24 hours daily,,1,EV Connect,43.453969,-80.553911,2022-04-13,88074,2022-04-26 16:04:15 UTC,CHADEMO J1772COMBO,BANK,
UBC Alumni Building,6131 University Blvd,Vancouver,V6T 1Z1,604-822-6786,24 hours daily; parking fee required; Smart phone required to start charging session,12,4,SWTCH,49.26616983,-123.2489714,2022-02-10,88191,2022-04-26 16:04:15 UTC,CHADEMO J1772 J1772COMBO,COLLEGE_CAMPUS,$3 per hour
BC Hydro - Coquitlam Superstore - West,1301 Lougheed Hwy,Coquitlam,V3K 6P9,604-520-8340  866-338-3369,24 hours daily,,3,BCHYDRO,49.233839,-122.857131,2021-12-13,88192,2022-04-26 16:04:15 UTC,CHADEMO J1772COMBO,SHOPPING_CENTER,Free
BC Hydro - Peace Arch Superstore,2332 160 St,Surrey,V3S 9N6,778-545-0431  866-338-3369,24 hours daily,,2,BCHYDRO,49.043345,-122.775765,2022-04-13,88193,2022-04-26 16:04:15 UTC,CHADEMO J1772COMBO,SHOPPING_CENTER,$0.21 per minute
BC Hydro - Richmond Superstore,4651 No 3 Rd,Richmond,V6X 2C4,604-233-2418  866-338-3369,24 hours daily,,2,BCHYDRO,49.1790335,-123.139843,2022-04-13,88194,2022-04-26 16:04:15 UTC,CHADEMO J1772COMBO,SHOPPING_CENTER,$0.21 per minute
BC Hydro - Nanaimo Superstore,6435 Metral Dr,Nanaimo,V9T 2L9,250-390-5718  866-338-3369,24 hours daily,,2,BCHYDRO,49.23138646,-124.0455938,2022-04-13,88195,2022-04-26 16:04:15 UTC,CHADEMO J1772COMBO,SHOPPING_CENTER,$0.21 per minute
BC Hydro - Qualicum Quality Foods,705 Memorial Ave,Qualicum,V9K 1T7,250-752-9281  866-338-3369,24 hours daily,1,1,BCHYDRO,49.346441,-124.441656,2022-04-13,88196,2022-04-26 16:04:15 UTC,CHADEMO J1772 J1772COMBO,GROCERY,DCFC: $0.21 per minute
BC Hydro - Port Alberni No Frills,3455 Johnston Rd,Port Alberni,V9Y 8K1,866-987-6453  866-338-3369,24 hours daily,,2,BCHYDRO,49.26750755,-124.7836003,2022-02-10,88197,2022-04-26 16:04:15 UTC,CHADEMO J1772COMBO,GROCERY,$0.21 per minute
BC Hydro - Tynehead Auto Center,16815 96th Ave,Surrey,V4N 2C5,604-581-6112  866-338-3369,24 hours daily,,1,BCHYDRO,49.17732925,-122.7560905,2022-04-13,88198,2022-04-26 16:04:15 UTC,CHADEMO J1772COMBO,GAS_STATION,$0.21 per minute
BC Hydro - Britton Creek Rest Area,Coquihalla Lakes Rd,Fraser Valley B,V0X 1L0,855-900-7584  866-338-3369,24 hours daily,1,2,BCHYDRO,49.65168136,-121.0008897,2021-12-13,88199,2022-04-26 16:04:15 UTC,CHADEMO J1772 J1772COMBO,REST_STOP,Free
Pacific Rim Visitor Centre,2791 Pacific Rim Hwy,Ucluelet,V0R 3A0,250-726-4600,24 hours daily,2,1,BCHYDRO,48.9923019,-125.5882567,2021-12-13,88200,2022-04-26 16:04:15 UTC,CHADEMO J1772 J1772COMBO,REST_STOP,Free
BC Hydro - Coquitlam Superstore - East,3000 Lougheed Hwy,Coquitlam,V3B 1C5,604-468-6718  866-338-3369,24 hours daily,,2,BCHYDRO,49.2746297,-122.7963176,2022-04-13,88201,2022-04-26 16:04:15 UTC,CHADEMO J1772COMBO,SHOPPING_CENTER,$0.21 per minute
BC Hydro - Mobil Gas,757 Ryan Rd,Courtenay,V9N 3R6,250-334-1822,24 hours daily,,2,BCHYDRO,49.6971749,-124.9883062,2020-08-10,88202,2022-04-08 02:44:13 UTC,CHADEMO J1772COMBO,GAS_STATION,Free
BC Hydro - Grandview Highway Superstore,3185 Grandview Hwy,Vancouver,V5M 2E9,866-338-3369,24 hours daily,,2,BCHYDRO,49.259247,-123.035854,2022-04-13,88203,2022-04-26 16:04:15 UTC,J1772COMBO,SHOPPING_CENTER,$0.21 per minute
BC Hydro - Mission Superstore,32136 Lougheed Hwy,Mission,V2V 1A4,866-338-3369,24 hours daily; Also accepts in-app payment,,1,BCHYDRO,49.131701,-122.333454,2022-02-10,88204,2022-04-26 16:04:15 UTC,CHADEMO J1772COMBO,SHOPPING_CENTER,$0.21 per minute
BC Hydro - The Real Canadian Superstore,350 SE Marine Dr,Vancouver,V5X 2S5,604-322-3702  866-338-3369,24 hours daily,,2,BCHYDRO,49.20999311,-123.098588,2022-04-13,88205,2022-04-26 16:04:15 UTC,CHADEMO J1772COMBO,SHOPPING_CENTER,$0.21 per minute
BC Hydro - Campbell River Community Centre,401 11 Ave,Campbell River,V9W 4G2,250-286-1161  866-338-3369,24 hours daily,,2,BCHYDRO,50.025885,-125.246203,2022-04-13,88207,2022-04-26 16:04:15 UTC,CHADEMO J1772COMBO,REC_SPORTS_FACILITY,$0.21 per minute
BC Hydro - Sidney Municipal Lot,2337 Becan Ave,Sidney,V8L 1W9,250-656-1184  866-338-3369,24 hours daily,,2,BCHYDRO,48.648016,-123.40395,2022-04-13,88208,2022-04-26 16:04:15 UTC,CHADEMO J1772COMBO,PARKING_LOT,$0.21 per minute
BC Hydro - Dunsmuir,561 Homer St,Vancouver,V6B 5R4,604-899-4581  866-338-3369,24 hours daily,,2,BCHYDRO,49.28221357,-123.1129036,2021-12-13,88209,2022-04-26 16:04:15 UTC,CHADEMO J1772COMBO,STREET_PARKING,Free
Qualicum Foods,133 W Fern Rd,Qualicum,V9K 2K1,250-752-9281  250-248-4004,24 hours daily,,1,Non-Networked,49.346445,-124.443463,2022-02-10,88223,2022-04-26 16:04:15 UTC,CHADEMO J1772COMBO,GROCERY,Free
Tim Horton's,50 Ottawa St W,Havelock,K0L 1Z0,705-778-1056,24 hours daily,,1,Non-Networked,44.433386,-77.893121,2022-02-10,88673,2022-04-26 16:04:15 UTC,CHADEMO J1772COMBO,RESTAURANT,$3.95 plus $0.16 per minute
Scotiabank,1700 King Rd,King City,L7B 0N1,905-833-5933,24 hours daily,,1,EV Connect,43.934119,-79.507386,2022-04-13,88680,2022-04-26 16:04:15 UTC,CHADEMO J1772COMBO,BANK,Free
Scotiabank,660 Gardiners Rd,Kingston,K7M 3X9,613-389-6620,24 hours daily,,1,EV Connect,44.245468,-76.567327,2022-04-13,88681,2022-04-26 16:04:15 UTC,CHADEMO J1772COMBO,BANK,Free
Scotiabank,165 Kent St W,Lindsay,K9V 3B6,705-324-2123,24 hours daily,,1,EV Connect,44.354276,-78.738859,2022-04-13,88682,2022-04-26 16:04:15 UTC,CHADEMO J1772COMBO,BANK,
Scotiabank,5201 Ament Line,Linwood,N0B 2A0,519-698-2001,24 hours daily,,1,Non-Networked,43.581519,-80.728389,2022-02-10,88683,2022-04-26 16:04:15 UTC,CHADEMO J1772COMBO,BANK,Free
Scotiabank,190 Main St E,Listowel,N4W 2B6,519-291-4010,24 hours daily,,2,EV Connect,43.730999,-80.952236,2022-04-13,88684,2022-04-26 16:04:15 UTC,CHADEMO J1772COMBO,BANK,Free
YMCA,101 YMCA Blvd,Markham,L6G 0A1,905-513-9622,24 hours daily; for client use only,2,1,Non-Networked,43.852599,-79.310815,2019-11-08,88687,2022-04-28 20:01:31 UTC,CHADEMO J1772 J1772COMBO,REC_SPORTS_FACILITY,Free
Scotiabank,346 Main St,Mattawa,P0H 1V0,705-744-5596  844-835-2348,24 hours daily,,1,EV Connect,46.31778,-78.704306,2022-04-13,88688,2022-04-26 16:04:15 UTC,CHADEMO J1772COMBO,BANK,Free
Scotiabank,3925 Kirwin Ave,Mississauga,L5A 4K9,905-276-5900,24 hours daily,,1,Non-Networked,43.5834681,-79.6203344,2021-04-12,88690,2022-04-06 20:43:54 UTC,CHADEMO J1772COMBO,BANK,Free
VANCOUVER INTL PK1-EV-01,5140 Grant McConachie Way,Richmond,V7B 1V1,888-758-4389,24 hours daily,,1,ChargePoint Network,49.194113,-123.17881,2022-07-12,92591,2022-07-12 00:56:54 UTC,CHADEMO J1772COMBO,,
Tim Horton's,1530 N Service Rd W,Oakville,L6M 4A1,905-465-1214,24 hours daily,,1,Non-Networked,43.42637,-79.726171,2022-01-11,94470,2022-04-26 16:04:15 UTC,CHADEMO J1772COMBO,RESTAURANT,Free
Scotiabank,8111 Campeau Dr,Kanata,K2T 1B7,613-591-2020,24 hours daily,,1,EV Connect,45.308868,-75.91728,2022-04-13,94471,2022-04-26 16:04:15 UTC,CHADEMO J1772COMBO,BANK,Free
Scotiabank,81 Pembroke St W,Pembroke,K8A 5M7,613-732-2826  888-999-5783,24 hours daily,,1,EV Connect,45.825829,-77.11505,2022-04-13,94474,2022-04-26 16:04:15 UTC,CHADEMO J1772COMBO,BANK,Free
Scotiabank,135 Main St,Penetanguishene,L9M 1L7,705-549-7466,24 hours daily,,1,Non-Networked,44.767029,-79.931728,2022-01-11,94475,2022-04-26 16:04:15 UTC,CHADEMO J1772COMBO,BANK,Free
Victoria Hall,411 Greenfield St,Petrolia,N0N 1R0,519-882-1221,24 hours daily,,1,Non-Networked,42.881106,-82.146763,2022-01-11,94476,2022-04-26 16:04:15 UTC,CHADEMO J1772COMBO,OTHER_ENTERTAINMENT,Free
Scotiabank,158 Lakeshore Rd E,Mississauga,L5G 1E9,905-278-3358,24 hours daily,,1,EV Connect,43.556398,-79.581016,2022-04-13,94478,2022-04-26 16:04:15 UTC,CHADEMO J1772COMBO,BANK,
Scotiabank,407 Main St,Port Dover,N0A 1N0,519-583-2000,24 hours daily,,1,Non-Networked,42.787499,-80.205286,2022-01-11,94479,2022-04-26 16:04:15 UTC,CHADEMO J1772COMBO,BANK,Free
Scotiabank,1116 Concession St,Russell,K4R 1C8,613-445-2880,24 hours daily,,1,Non-Networked,45.257806,-75.35877,2022-01-11,94480,2022-04-26 16:04:15 UTC,CHADEMO J1772COMBO,BANK,Free
Scotiabank,4 Norfolk St N,Simcoe,N3Y 3N6,519-426-7330,24 hours daily,,1,Non-Networked,42.837253,-80.304252,2021-04-12,94483,2022-04-06 20:43:21 UTC,CHADEMO J1772COMBO,BANK,Free
Scotiabank,92 Lombard St,Smiths Falls,K7A 4G5,613-284-4111,24 hours daily,,1,EV Connect,44.8933,-76.029637,2022-04-13,94484,2022-04-26 16:04:15 UTC,CHADEMO J1772COMBO,BANK,Free
Scotiabank,10 Wright Blvd,Stratford,N4Z 1H3,800-567-1331,24 hours daily,,1,Non-Networked,43.360712,-81.008414,2022-01-11,94487,2022-04-26 16:04:15 UTC,CHADEMO J1772COMBO,BANK,Free
Scotiabank,1 Ontario St,Stratford,N5A 3G8,519-272-8250,24 hours daily,,1,EV Connect,43.371326,-80.984304,2022-04-13,94488,2022-04-26 16:04:15 UTC,CHADEMO J1772COMBO,BANK,Free
Scotiabank,155 Green Rd,Stoney Creek,L8G 3X2,905-664-9377,24 hours daily,,1,EV Connect,43.220541,-79.7342,2022-04-13,94489,2022-04-26 16:04:15 UTC,CHADEMO J1772COMBO,BANK,Free
Scotiabank,1880 Eglinton Ave E,Scarborough,M1L 2L1,416-285-2190,24 hours daily,2,1,Non-Networked,43.72553,-79.299486,2022-01-11,94491,2022-04-26 16:04:15 UTC,CHADEMO J1772 J1772COMBO,BANK,Free
Uptown - Saanich,3440 Saanich Road,Victoria,V8Z 0B9,855-900-7584,24 hours daily,,1,Greenlots,48.455366,-123.374713,2022-07-12,98960,2022-07-12 01:55:44 UTC,CHADEMO J1772COMBO,,
Veridian Connections Inc,55 Taunton Rd. East,Ajax,L1T 3V3,855-900-7584,24 hours daily,2,1,Greenlots,43.895598,-79.038773,2022-07-12,99130,2022-07-12 01:57:58 UTC,CHADEMO J1772 J1772COMBO,,
Lindsay Recreation Complex,133 Adelaide St,Lindsay,K9V 3H7,855-900-7584,24 hours daily,,1,Greenlots,44.340826,-78.744536,2022-07-12,99194,2022-07-12 01:58:02 UTC,CHADEMO J1772COMBO,,
Dominion Building,138 Wyndham Street North,Guelph,N1H 4E8,855-900-7584,24 hours daily,,1,Greenlots,43.546952,-80.250767,2022-07-12,99196,2022-07-12 01:58:02 UTC,CHADEMO J1772COMBO,,
Arthur Library,110 Charles Street East,Arthur,N0G 1A0,855-900-7584,24 hours daily,,1,Greenlots,43.831205,-80.534873,2022-07-12,99197,2022-07-12 01:58:02 UTC,CHADEMO J1772COMBO,,
County of Simcoe - Stayner,212 Huron St,Stayner,L0M 1S0,855-900-7584,24 hours daily,,1,Greenlots,44.419607,-80.087289,2022-07-12,99266,2022-07-12 01:58:13 UTC,CHADEMO J1772COMBO,,
Quality Inn & Suites - Tesla Supercharger,580 Bruin Blvd.,Woodstock,N4V 1E5,877-798-3752,24 hours daily; for Tesla use only,,8,Tesla,43.111918,-80.738804,2021-10-11,103130,2021-11-04 18:37:47 UTC,TESLA,HOTEL,$0.44 per minute above 60 kW and $0.22 per minute at or below 60 kW
CITYOFVANCOUVER SOUTH HILL DC 2,646 E 44th Ave,Vancouver,V5W 2Z8,888-758-4389,24 hours daily,,1,ChargePoint Network,49.229904,-123.091351,2022-07-12,104359,2022-07-12 01:05:58 UTC,CHADEMO J1772COMBO,,
SmartCentres Pickering - Tesla Supercharger,1899 Brock Road,Pickering,L1V 4H4,877-798-3752,24 hours daily; for Tesla use only,,20,Tesla,43.846138,-79.072896,2021-10-11,105571,2021-11-04 18:37:47 UTC,TESLA,SHOPPING_CENTER,$0.44 per minute above 60 kW and $0.22 per minute at or below 60 kW
Comfort Inn & Suites Airdrie - Tesla Destination,133 Sierra Springs Dr SE,Airdrie,T4B 3G7,403-948-3411  877-798-3752,24 hours daily; for customer use only,2,,Tesla Destination,51.26837,-114.0037,2020-11-03,116255,2021-06-07 17:08:43 UTC,J1772 TESLA,HOTEL,Free
Hampton Inn & Suites by Hilton Airdrie - Tesla Destination,53 E Lake Ave NE,Airdrie,T4A 2G8,403-980-4477  877-798-3752,24 hours daily; for customer use only; see front desk for access,3,,Tesla Destination,51.295324,-113.996709,2020-11-03,116256,2021-06-07 17:08:43 UTC,TESLA,INN,Free
"Days Inn and Suites, Airdrie - Tesla Destination",911 Highland Park Cove NE,Airdrie,T4A 0R2,800-329-7466  877-798-3752,24 hours daily; for customer use only,2,,Tesla Destination,51.300971,-113.997595,2020-11-03,116258,2021-06-07 17:08:43 UTC,TESLA,HOTEL,Free
Best Western Plus Okotoks Inn & Suites - Tesla Destination,100 Southbank Rd,Aldersyde,T0L 0A0,403-995-6262  877-798-3752,24 hours daily; for customer use only; see front desk for access,2,,Tesla Destination,50.708029,-113.947349,2020-11-03,116259,2021-06-07 17:08:43 UTC,J1772 TESLA,HOTEL,Free
Banff Sunshine Village - Tesla Destination,1 Sunshine Rd,Banff,T1L 1B2,403-705-4000  877-798-3752,24 hours daily,1,,Tesla Destination,51.115186,-115.763276,2020-11-03,116260,2021-06-07 17:08:43 UTC,TESLA,HOTEL,Free
Moose Hotel & Suites - Tesla Destination,229  Bear St,Banff,T1L 1H8,866-379-0021  877-798-3752,24 hours daily; for customer use only,3,,Tesla Destination,51.178322,-115.572613,2020-11-03,116261,2021-06-07 17:08:43 UTC,J1772 TESLA,HOTEL,Free
The Rimrock Resort Hotel - Tesla Destination,300 Mountain Ave,Banff,T1L 1J2,403-762-3356  877-798-3752,24 hours daily; for customer use only,9,,Tesla Destination,51.151648,-115.559526,2020-11-03,116262,2021-06-07 17:08:43 UTC,TESLA,HOTEL,Free
The Fairmont Banff Springs - Tesla Destination,405 Spray Ave,Banff,T1L1J4,403-762-2211  877-798-3752,24 hours daily; for customer use only; see valet for access,6,,Tesla Destination,51.163681,-115.562745,2020-11-03,116263,2021-06-07 17:08:43 UTC,TESLA,HOTEL,Free
Wyndham Garden Calgary Airport - Tesla Destination,11 Freeport Cres NE,Calgary,T3J 0T4,403-516-2266  877-798-3752,24 hours daily; see front desk for access,2,,Tesla Destination,51.14054,-114.026101,2020-11-03,116264,2021-06-07 17:08:43 UTC,J1772 TESLA,HOTEL,Free
Calgary Marriott Downtown - Tesla Destination,110 9th Ave SE,Calgary,T2G 5A6,403-266-7331  877-798-3752,24 hours daily; see valet for access,2,,Tesla Destination,51.044772,-114.061926,2020-11-03,116265,2021-06-07 17:08:43 UTC,J1772 TESLA,HOTEL,Free
Impark (Keynote Parking Garage) - Tesla Destination,1100 1st St SE,Calgary,T2G 1B1,403-299-7275  877-798-3752,24 hours daily; pay lot,2,,Tesla Destination,51.041984,-114.060559,2020-11-03,116266,2021-06-07 17:08:43 UTC,TESLA,PAY_GARAGE,Free
Acclaim Hotel Calgary Airport - Tesla Destination,123 Freeport Blvd NE,Calgary,T3N 0A3,403-291-8000  877-798-3752,24 hours daily; for customer use only,2,,Tesla Destination,51.150104,-114.000241,2020-11-03,116267,2021-06-07 17:08:43 UTC,J1772 TESLA,HOTEL,Free
Coast Plaza Hotel & Conference Centre - Tesla Destination,1316 33rd St NE,Calgary,T2A 6J4,403-248-8888  877-798-3752,24 hours daily; for customer use only,2,,Tesla Destination,51.064012,-113.985726,2020-11-03,116268,2021-06-07 17:08:43 UTC,J1772 TESLA,HOTEL,Free
OMO Teppan & Kitchen - Tesla Destination,5222 Macleod Trl S,Calgary,T2H 0J2,403-764-3222  877-798-3752,24 hours daily; for customer use only,3,,Tesla Destination,51.007793,-114.067885,2020-11-03,116270,2021-06-07 17:08:43 UTC,TESLA,RESTAURANT,Free
East Village Properties Inc. Parkade - Tesla Destination,620 6th Ave SE,Calgary,T2H 0J2,833-258-6635  877-798-3752,24 hours daily; for customer use only,1,,Tesla Destination,51.047307,-114.049467,2020-11-03,116271,2021-06-07 17:08:43 UTC,TESLA,PAY_GARAGE,Free
Hyatt Regency Calgary - Tesla Destination,700 Centre Street SE,Calgary,T2G 5P6,403-717-1234  877-798-3752,24 hours daily; for customer use only,2,,Tesla Destination,51.046489,-114.062861,2020-11-03,116272,2021-06-07 17:08:43 UTC,TESLA,HOTEL,Free
Le Germain Hotel Calgary - Tesla Destination,899 Centre St SW,Calgary,T2P 0S9,877-362-8990  877-798-3752,24 hours daily; for customer use only; see valet for access,3,,Tesla Destination,51.044618,-114.063262,2020-11-03,116273,2021-06-07 17:08:43 UTC,J1772 TESLA,HOTEL,Free
Four Points by Sheraton Edmonton Gateway - Tesla Destination,10010  12th Ave SW,Edmonton,T6X 0P9,780-801-4000  877-798-3752,24 hours daily; for customer use only; see front desk for access,1,,Tesla Destination,53.42305,-113.48741,2020-11-03,116275,2021-06-07 17:08:43 UTC,TESLA,HOTEL,Free
Fairmont Hotel Macdonald - Tesla Destination,10065 100th St,Edmonton,T5J 0N6,780-424-5181  877-798-3752,24 hours daily; for customer use only; see valet for access,1,,Tesla Destination,53.5401,-113.489331,2020-11-03,116276,2021-06-07 17:08:43 UTC,TESLA,HOTEL,Free
Coast Edmonton Plaza Hotel - Tesla Destination,10155 105 St NW,Edmonton,T5J 1C9,780-423-4811  877-798-3752,24 hours daily,2,,Tesla Destination,53.542205,-113.500575,2020-11-03,116277,2021-06-07 17:08:43 UTC,J1772 TESLA,HOTEL,Free
Sunwapta Shopping Centre - Tesla Destination,10175 186 St,Edmonton,T5M 2Y8,780-424-8008  877-798-3752,24 hours daily,4,,Tesla Destination,53.541936,-113.646203,2020-11-03,116278,2021-06-07 17:08:43 UTC,TESLA,SHOPPING_CENTER,Free
Vaticano Cucina - Tesla Destination,10310 45th Ave NW,Edmonton,T6H 5K3,780-250-1110  877-798-3752,24 hours daily; for customer use only,3,,Tesla Destination,53.483286,-113.49272,2020-11-03,116279,2021-06-07 17:08:43 UTC,TESLA,RESTAURANT,Free
Sawridge Inn and Conference Centre Edmonton - Tesla Destination,4235 Gateway Blvd N,Edmonton,T6J 5H2,780-438-1222  877-798-3752,24 hours daily; for customer use only,2,,Tesla Destination,53.478918,-113.491183,2020-11-03,116281,2021-06-07 17:08:43 UTC,J1772 TESLA,HOTEL,Free
Fantasyland Hotel - Tesla Destination,8882 170 St NW,Edmonton,T5T 5X1,780-444-5321  877-798-3752,24 hours daily; for customer use only; see valet for access,6,,Tesla Destination,53.522673,-113.62285,2020-11-03,116282,2021-06-07 17:08:43 UTC,J1772 TESLA,SHOPPING_CENTER,Free
Guest House Inn & Suites - Tesla Destination,4411 4 Ave,Edson,T7E 1B8,780-723-4486  877-798-3752,24 hours daily; for customer use only; see front desk for access,3,,Tesla Destination,53.586826,-116.419124,2020-11-03,116283,2021-06-07 17:08:43 UTC,TESLA,HOTEL,Free
Best Western Hotel & Resort High Level - Tesla Destination,9616 Hwy 58,High Level,T0H 1Z0,780-821-1000  877-798-3752,24 hours daily; for customer use only; see front desk for access,1,,Tesla Destination,58.519048,-117.119936,2020-11-03,116284,2021-06-07 17:08:43 UTC,TESLA,HOTEL,Free
The Fairmont Jasper Park Lodge - Tesla Destination,1 Old Lodge Rd,Jasper,T0E-1E0,780-852-3301  877-798-3752,24 hours daily; for customer use only,4,,Tesla Destination,52.885988,-118.056984,2020-11-03,116285,2021-06-07 17:08:43 UTC,J1772 TESLA,HOTEL,Free
Sawridge Inn and Conference Centre Jasper - Tesla Destination,76 Connaught Dr,Jasper,T0E 1E0,780-852-5111  877-798-3752,24 hours daily; for customer use only,2,,Tesla Destination,52.890725,-118.076466,2020-11-03,116286,2021-06-07 17:08:43 UTC,J1772 TESLA,HOTEL,Free
Best Western Plus Lacombe Inn & Suites - Tesla Destination,4751 63 St,Lacombe,T4L 1K7,403-782-3535  877-798-3752,24 hours daily; see front desk for access,2,,Tesla Destination,52.4612011,-113.7541265,2020-11-03,116287,2021-06-07 17:08:43 UTC,J1772 TESLA,HOTEL,Free
The Fairmont Chateau Lake Louise - Tesla Destination,111  Lake Louise Drive,Lake Louise,T0L 1E0,403-522 3511  877-798-3752,24 hours daily; for customer use only; see valet for access,3,,Tesla Destination,51.41771,-116.216893,2020-11-03,116289,2021-06-07 17:08:43 UTC,J1772 TESLA,HOTEL,Free
Holiday Inn Express & Suites Lethbridge - Tesla Destination,120 Stafford Dr,Lethbridge,T1J 4W4,800-315-2621  877-798-3752,24 hours daily; for customer use only; see front desk for access,2,,Tesla Destination,49.697573,-112.834345,2020-11-03,116290,2021-06-07 17:08:43 UTC,TESLA,HOTEL,Free
Okotoks Municipal Centre - Tesla Destination,5  Elizabeth St,Okotoks,T1S 2K1,403-938-4404  877-798-3752,24 hours daily,2,,Tesla Destination,50.725129,-113.975283,2020-11-03,116291,2021-06-07 17:08:43 UTC,J1772 TESLA,MUNI_GOV,Free
Red Deer Lodge Hotel and Conference Centre - Tesla Destination,4311 49 Ave,Red Deer,T4N 5Y7,403-346-8841  877-798-3752,24 hours daily,1,,Tesla Destination,52.262746,-113.810246,2020-11-03,116292,2021-06-07 17:08:43 UTC,TESLA,HOTEL,Free
Sage Hills Motel - Tesla Destination,1390 Cariboo Hwy 97,Cache Creek,V0K 1H0,250-457-9777  877-798-3752,24 hours daily; for customer use only; see front desk for access,2,,Tesla Destination,50.81293,-121.326673,2020-11-03,116295,2021-06-07 17:08:43 UTC,J1772 TESLA,HOTEL,Free
Shelter Point Distillery - Tesla Destination,4650 Regent Rd,Campbell River,V9H 1E3,778-420-2200  877-798-3752,24 hours daily; for customer use only,4,,Tesla Destination,49.879135,-125.129007,2020-11-03,116296,2021-06-07 17:08:43 UTC,TESLA,BREWERY_DISTILLERY_WINERY,Free
Seven Stones Winery - Tesla Destination,1143 Hwy 3,Cawston,V0X 1C3,250-499-2144  877-798-3752,24 hours daily; for customer use only,1,,Tesla Destination,49.094979,-119.715403,2020-11-03,116297,2021-06-07 17:08:43 UTC,TESLA,BREWERY_DISTILLERY_WINERY,Free
Coast Chilliwack Hotel - Tesla Destination,45920 First Ave,Chilliwack,V2P 7K1,604-792-5552  877-798-3752,24 hours daily; for customer use only,2,,Tesla Destination,49.168608,-121.953985,2020-11-03,116298,2021-06-07 17:08:43 UTC,J1772 TESLA,HOTEL,Free
Christina Lake Welcome Centre - Tesla Destination,1675 Highway 3,Christina Lake,V0H 1E2,250-447-6161  877-798-3752,24 hours daily; for customer use only; see front desk for access,1,,Tesla Destination,49.029741,-118.457827,2020-11-03,116299,2021-06-07 17:08:43 UTC,TESLA,MUNI_GOV,Free
Wayward Distillation House - Tesla Destination,2931 Moray Ave,Courtenay,V9N 7S7,250-871-0424  877-798-3752,24 hours daily,2,,Tesla Destination,49.669156,-124.984406,2020-11-03,116300,2021-06-07 17:08:43 UTC,J1772 TESLA,BREWERY_DISTILLERY_WINERY,Free
Town of Creston Cook Street Parking Lot - Tesla Destination,1102 Cook St,Creston,V0B 1G0,250-428-2214  877-798-3752,24 hours daily,1,,Tesla Destination,49.094968,-116.511814,2020-11-03,116301,2021-06-07 17:08:43 UTC,TESLA,MUNI_GOV,Free
Creston Valley Chamber of Commerce - Tesla Destination,121 Northwest Blvd,Creston,V0B 1G0,250-428-2214  877-798-3752,24 hours daily,2,,Tesla Destination,49.09596,-116.515019,2020-11-03,116302,2021-06-07 17:08:43 UTC,J1772 TESLA,MUNI_GOV,Free
Denman Island Community Hall - Tesla Destination,1196 Northwest Rd,Denman Island,V0R 1T0,250-335-1074  877-798-3752,24 hours daily,2,,Tesla Destination,49.536692,-124.817468,2020-11-03,116303,2021-06-07 17:08:43 UTC,TESLA,MUNI_GOV,Free
Microtel Inn & Suites - Fort St. John - Tesla Destination,8407 93rd St,Fort St John,V1J 6S2,250-794-3100  877-798-3752,24 hours daily; for customer use only; see front desk for access,2,,Tesla Destination,56.231825,-120.834362,2020-11-03,116304,2021-06-07 17:08:43 UTC,J1772 TESLA,HOTEL,Free
Bodega Ridge - Tesla Destination,120 Manastee Rd,Galiano Island,V0N 1P0,250-539-2677  877-798-3752,24 hours daily; for customer use only,3,,Tesla Destination,48.972023,-123.5577,2020-11-03,116305,2021-06-07 17:08:43 UTC,TESLA,HOTEL,Free
Greenwood Museum & Visitor Centre - Tesla Destination,214 S Copper Ave,Greenwood,V0H 1J0,250-445-6355  877-798-3752,24 hours daily,2,,Tesla Destination,49.090036,-118.677189,2020-11-03,116307,2021-06-07 17:08:43 UTC,J1772 TESLA,MUSEUM,Free
Harrison Hot Springs Resort & Spa - Tesla Destination,100 Esplanade Ave,Harrison Hot Springs,V0M 1K0,800-663-2266  877-798-3752,24 hours daily; for customer use only,3,,Tesla Destination,49.303796,-121.788856,2020-11-03,116308,2021-06-07 17:08:43 UTC,J1772 TESLA,HOTEL,Free
Village of Harrison Hot Springs Memorial Hall - Tesla Destination,290 Esplanade Ave,Harrison Hot Springs,V0M 1K0,604-796-2171  877-798-3752,24 hours daily,3,,Tesla Destination,49.302841,-121.783168,2020-11-03,116309,2021-06-07 17:08:43 UTC,J1772 TESLA,MUNI_GOV,Free
Copper Point Resort - Tesla Destination,760 Cooper Rd,Invermere,V0A 1K2,855-926-7737  877-798-3752,24 hours daily; for customer use only; see front desk for access,2,,Tesla Destination,50.51231,-115.993207,2020-11-03,116310,2021-06-07 17:08:43 UTC,J1772 TESLA,HOTEL,Free
Echo Valley Ranch & Spa - Tesla Destination,10635 Jesmond Rd,Jesmond,V0K 1K0,800-253-8831  877-798-3752,24 hours daily; for customer use only; see front desk for access,3,,Tesla Destination,51.248513,-121.956796,2020-11-03,116311,2021-06-07 17:08:43 UTC,J1772 TESLA,HOTEL,Free
Wingate by Wyndham Kamloops - Tesla Destination,1180 Rogers Wy,Kamloops,V1S 1N5,778-471-7706  877-798-3752,24 hours daily; for customer use only; see front desk for access,2,,Tesla Destination,50.651537,-120.368665,2020-11-03,116312,2021-06-07 17:08:43 UTC,TESLA,HOTEL,Free
Best Western Plus Kamloops Hotel - Tesla Destination,660  Columbia St W,Kamloops,V2C 1L1,250-374-7878  877-798-3752,24 hours daily,2,,Tesla Destination,50.671756,-120.354776,2020-11-03,116313,2021-06-07 17:08:43 UTC,J1772 TESLA,HOTEL,Free
Kaslo Hotel - Tesla Destination,430 Front St,Kaslo,V0G 1M0,250-353-7714  877-798-3752,24 hours daily; for customer use only; see front desk for access,2,,Tesla Destination,49.912478,-116.905193,2020-11-03,116314,2021-06-07 17:08:43 UTC,TESLA,HOTEL,Free
Delta Grand Okanagan Resort - Tesla Destination,1310 Water St,Kelowna,V1Y 9P4,250-763-4500  877-798-3752,24 hours daily; for customer use only; see valet for access,2,,Tesla Destination,49.891089,-119.497534,2020-11-03,116315,2021-06-07 17:08:43 UTC,J1772 TESLA,HOTEL,Free
Best Western Plus Kelowna Hotel & Suites - Tesla Destination,2402 Hwy 97 N,Kelowna,V1X 6W7,250-860-1212  877-798-3752,24 hours daily; see front desk for access,1,,Tesla Destination,49.885143,-119.427928,2020-11-03,116317,2021-06-07 17:08:43 UTC,TESLA,HOTEL,Free
Summerhill Estate Winery Co - Tesla Destination,4870 Chute Lake Rd,Kelowna,V1W 4M3,250-764-8000  877-798-3752,24 hours daily; see front desk for access,2,,Tesla Destination,49.8055,-119.5,2020-11-03,116318,2021-06-07 17:08:43 UTC,J1772 TESLA,BREWERY_DISTILLERY_WINERY,Free
Four Points By Sheraton Kelowna Airport - Tesla Destination,5505 Airport Wy,Kelowna,V1V 3C3,250-807-2000  877-798-3752,24 hours daily; for customer use only; see front desk for access,6,,Tesla Destination,49.951108,-119.388841,2020-11-03,116319,2021-06-07 17:08:43 UTC,J1772 TESLA,HOTEL,Free
Urban Distilleries - Tesla Destination,6-325 Bay Ave,Kelowna,V1Y 7S3,778-478-0939  877-798-3752,24 hours daily; for customer use only,2,,Tesla Destination,49.898347,-119.495716,2020-11-03,116320,2021-06-07 17:08:43 UTC,J1772 TESLA,BREWERY_DISTILLERY_WINERY,Free
Clos du Soleil Winery - Tesla Destination,2568 Upper Bench Rd,Keremeos,V0X 1N4,403-680-8060  877-798-3752,24 hours daily; for customer use only; see front desk for access,2,,Tesla Destination,49.213033,-119.791473,2020-11-03,116321,2021-06-07 17:08:43 UTC,J1772 TESLA,BREWERY_DISTILLERY_WINERY,Free
Microtel Inn & Suites by Wyndham Kitimat - Tesla Destination,635 Dadook Ave,Kitimat,V8C 2G7,778-631-0044  877-798-3752,24 hours daily; for customer use only; see front desk for access,2,,Tesla Destination,54.056518,-128.668613,2020-11-03,116322,2021-06-07 17:08:43 UTC,J1772 TESLA,HOTEL,Free
Pender Harbour Hotel - Tesla Destination,12671 Sunshine Coast Hwy,Madeira Park,V0N 2H1,604-883-9103  877-798-3752,24 hours daily; for customer use only,2,,Tesla Destination,49.622909,-124.020729,2020-11-03,116324,2021-06-07 17:08:43 UTC,TESLA,HOTEL,Free
Mayne Island Resort - Tesla Destination,494 Arbutus Dr,Mayne Island,V0N 2J1,250-539-3122  877-798-3752,24 hours daily,3,,Tesla Destination,48.844573,-123.252685,2020-11-03,116325,2021-06-07 17:08:43 UTC,J1772 TESLA,HOTEL,Free
Kettle River Museum - Tesla Destination,907 Crowsnest Hwy 3,Midway,V0H 1M0,250-449-2614  877-798-3752,24 hours daily,2,,Tesla Destination,49.016877,-118.244655,2020-11-03,116326,2021-06-07 17:08:43 UTC,J1772 TESLA,MUSEUM,Free
Lang Vineyards - Tesla Destination,2493 Gammon Rd,Naramata,V0H 1N0,778-514-5598  877-798-3752,24 hours daily; for customer use only; see front desk for access,2,,Tesla Destination,49.577344,-119.577393,2020-11-03,116327,2021-06-07 17:08:43 UTC,J1772 TESLA,BREWERY_DISTILLERY_WINERY,Free
Singing Marmot Guest Suites - Tesla Destination,2502 Winifred Rd,Naramata,V0H 1N1,778-514-5422  877-798-3752,24 hours daily; available with reservation only,1,,Tesla Destination,49.577732,-119.574345,2020-11-03,116328,2021-06-07 17:08:43 UTC,TESLA,HOTEL,Free
Sandy Beach Lodge & Resort - Tesla Destination,4275 Mill Rd,Naramata,V0H 1N0,250-496-5765  877-798-3752,24 hours daily; for customer use only; see front desk for access,2,,Tesla Destination,49.601702,-119.597273,2020-11-03,116330,2021-06-07 17:08:43 UTC,TESLA,HOTEL,Free
Lake Breeze Winery - Tesla Destination,930 Sammet Rd,Naramata,V0H 1N0,250-496-5659  877-798-3752,24 hours daily; for customer use only,2,,Tesla Destination,49.576096,-119.585165,2020-11-03,116331,2021-06-07 17:08:43 UTC,TESLA,BREWERY_DISTILLERY_WINERY,Free
Prestige Lakeside Resort Nelson - Tesla Destination,701 Lakeside Dr,Nelson,V1L 6G3,250-352-7222  877-798-3752,24 hours daily; for customer use only,2,,Tesla Destination,49.49743,-117.293833,2020-11-03,116332,2021-06-07 17:08:43 UTC,J1772 TESLA,HOTEL,Free
Inn at the Quay - Tesla Destination,900 Quayside Dr,New Westminster,V3M 6G2,800-663-2001  877-798-3752,24 hours daily; for customer use only; see front desk for access,2,,Tesla Destination,49.199808,-122.912528,2020-11-03,116333,2021-06-07 17:08:43 UTC,J1772 TESLA,INN,Free
Liquidity Wines - Tesla Destination,4720 Allendale Rd,Okanagan Falls,V0H 1R2,778-515-5550  877-798-3752,24 hours daily; available with reservation only; see front desk for access,1,,Tesla Destination,49.322841,-119.548607,2020-11-03,116334,2021-06-07 17:08:43 UTC,TESLA,BREWERY_DISTILLERY_WINERY,Free
Covert Farms Family Estate Winery - Tesla Destination,300 Covert Pl,Oliver,V0H 1T0,250-498-9463  877-798-3752,24 hours daily; for customer use only,2,,Tesla Destination,49.243525,-119.553674,2020-11-03,116335,2021-06-07 17:08:43 UTC,J1772 TESLA,BREWERY_DISTILLERY_WINERY,Free
Desert Hills Estate Winery - Tesla Destination,30480 71 St,Oliver,V0H 1T0,250-498-6664  877-798-3752,24 hours daily; for customer use only,2,,Tesla Destination,49.102082,-119.546556,2020-11-03,116336,2021-06-07 17:08:43 UTC,J1772 TESLA,BREWERY_DISTILLERY_WINERY,Free
C.C. Jentsch Cellars - Tesla Destination,4522 Hwy 97,Oliver,V0H 1T1,778-439-2091  877-798-3752,24 hours daily; for customer use only; see front desk for access,2,,Tesla Destination,49.12259,-119.581512,2020-11-03,116337,2021-06-07 17:08:43 UTC,J1772 TESLA,BREWERY_DISTILLERY_WINERY,Free
Culmina Family Estate Winery - Tesla Destination,4790 Wild Rose St,Oliver,V0H 1T0,250-498-0789  877-798-3752,24 hours daily; for customer use only; see front desk for access,3,,Tesla Destination,49.134664,-119.592751,2020-11-03,116338,2021-06-07 17:08:43 UTC,J1772 TESLA,BREWERY_DISTILLERY_WINERY,Free
Burrowing Owl Estate Winery - Tesla Destination,500 Burrowing Owl Pl,Oliver,V0H 1T0,250-498-0620  877-798-3752,24 hours daily; for customer use only,4,,Tesla Destination,49.101364,-119.531309,2020-11-03,116339,2021-06-07 17:08:43 UTC,TESLA,BREWERY_DISTILLERY_WINERY,Free
Quinta Ferreira - Tesla Destination,6094 Black Sage Rd,Oliver,V0H 1T8,250-498-4756  877-798-3752,24 hours daily; for customer use only,2,,Tesla Destination,49.179322,-119.538985,2020-11-03,116340,2021-06-07 17:08:43 UTC,J1772 TESLA,OTHER,Free
Town of Oliver - Tesla Destination,6431 Station St,Oliver,V0H 1T0,778-439-2363  877-798-3752,24 hours daily,3,,Tesla Destination,49.185968,-119.549007,2020-11-03,116341,2021-06-07 17:08:43 UTC,J1772 TESLA,MUNI_GOV,Free
Dubh Glas Distillery - Tesla Destination,8486 Gallagher Lake Frontage Rd,Oliver,V0H 1T2,778-439-3580  877-798-3752,24 hours daily,2,,Tesla Destination,49.244948,-119.525257,2020-11-03,116342,2021-06-07 17:08:43 UTC,J1772 TESLA,BREWERY_DISTILLERY_WINERY,Free
Fairview Mountain Golf - Tesla Destination,933 Old Golf Course Rd,Oliver,V0H 1T0,250-809-1815  877-798-3752,24 hours daily; for customer use only,3,,Tesla Destination,49.165229,-119.592236,2020-11-03,116343,2021-06-07 17:08:43 UTC,J1772 TESLA,REC_SPORTS_FACILITY,Free
Kismet Estate Winery - Tesla Destination,9580 Rd 20,Oliver,V0H1T1,250-408-9800  877-798-3752,24 hours daily; see front desk for access,2,,Tesla Destination,49.09989,-119.564644,2020-11-03,116344,2021-06-07 17:08:43 UTC,J1772 TESLA,BREWERY_DISTILLERY_WINERY,Free
Spirit Ridge Vineyard Resort and Spa - Tesla Destination,1200 Rancher Creek Rd,Osoyoos,V0H 1V6,844-755-4622  877-798-3752,24 hours daily; for customer use only,2,,Tesla Destination,49.039114,-119.433101,2020-11-03,116345,2021-06-07 17:08:43 UTC,TESLA,HOTEL,Free
Osoyoos Golf Club - Tesla Destination,12300 Golf Course Dr,Osoyoos,V0H 1V0,250-495-7003  877-798-3752,24 hours daily,2,,Tesla Destination,49.015909,-119.490589,2020-11-03,116346,2021-06-07 17:08:43 UTC,J1772 TESLA,REC_SPORTS_FACILITY,Free
Watermark Beach Resort - Tesla Destination,15 Park Pl,Osoyoos,V0H 1V0,250-495-5500  877-798-3752,24 hours daily; for customer use only; see front desk for access,3,,Tesla Destination,49.032964,-119.462408,2020-11-03,116347,2021-06-07 17:08:43 UTC,J1772 TESLA,HOTEL,Free
Walnut Beach Resort - Tesla Destination,4200 Lakeshore Dr,Osoyoos,V0H 1V6,877-936-5400  877-798-3752,24 hours daily; for customer use only; see front desk for access,3,,Tesla Destination,49.01781,-119.436865,2020-11-03,116348,2021-06-07 17:08:43 UTC,J1772 TESLA,HOTEL,Free
Best Western Plus Sunrise Inn - Tesla Destination,5506 Main St,Osoyoos,V0H 1V3,250-495-4000  877-798-3752,24 hours daily,1,,Tesla Destination,49.028741,-119.443172,2020-11-03,116349,2021-06-07 17:08:43 UTC,TESLA,HOTEL,Free
"Holiday Inn & Suites, Osoyoos - Tesla Destination",7906 Main St,Osoyoos,V0H 1V0,250-495-7223  877-798-3752,24 hours daily; see front desk for access,2,,Tesla Destination,49.028357,-119.45725,2020-11-03,116350,2021-06-07 17:08:43 UTC,J1772 TESLA,HOTEL,Free
LaStella Winery - Tesla Destination,8123 148 Ave,Osoyoos,V0H 1V2,250-495-8180  877-798-3752,24 hours daily; for customer use only,1,,Tesla Destination,49.054144,-119.497994,2020-11-03,116351,2021-06-07 17:08:43 UTC,TESLA,BREWERY_DISTILLERY_WINERY,Free
Tigh-Na-Mara Seaside Spa Resort & Conference Centre - Tesla Destination,1155 Resort Way,Parksville,V9P 2E3,250-248-2072  877-798-3752,24 hours daily; for customer use only,3,,Tesla Destination,49.31088,-124.265559,2020-11-03,116352,2021-06-07 17:08:43 UTC,J1772 TESLA,HOTEL,Free
The Beach Club Resort - Tesla Destination,181 Beachside Dr,Parksville,V9P 2H5,250-248-8999  877-798-3752,24 hours daily; for customer use only,2,,Tesla Destination,49.322614,-124.315355,2020-11-03,116353,2021-06-07 17:08:43 UTC,J1772 TESLA,HOTEL,Free
Pemberton Valley Lodge - Tesla Destination,1490 Sea-to-Sky Hwy,Pemberton,V0N 2L1,604-894-2000  877-798-3752,24 hours daily; for customer use only,3,,Tesla Destination,50.086877,-123.027964,2020-11-03,116354,2021-06-07 17:08:43 UTC,TESLA,HOTEL,Free
Sea Star Estate Farm & Vineyards - Tesla Destination,6621 Harbour Hill Dr,Pender Island,V0N 2M1,250-629-6960  877-798-3752,24 hours daily; for customer use only,3,,Tesla Destination,48.777774,-123.255502,2020-11-03,116355,2021-06-07 17:08:43 UTC,TESLA,BREWERY_DISTILLERY_WINERY,Free
Crooked Tree Guest Suites - Tesla Destination,1278 Spiller Rd,Penticton,V2A 8T3,250-490-8022  877-798-3752,24 hours daily; for customer use only,2,,Tesla Destination,49.534406,-119.534865,2020-11-03,116356,2021-06-07 17:08:43 UTC,J1772 TESLA,HOTEL,Free
Penticton Lakeside Resort - Tesla Destination,21  Lakeshore Dr W,Penticton,V2A 7M5,250-493-8221  877-798-3752,24 hours daily; for customer use only; see front desk for access,2,,Tesla Destination,49.503454,-119.595339,2020-11-03,116357,2021-06-07 17:08:43 UTC,TESLA,HOTEL,Free
Poplar Grove Winery - Tesla Destination,425 Middle Bench Rd N,Penticton,V2A 8S5,250-493-9463  877-798-3752,24 hours daily; for customer use only,2,,Tesla Destination,49.511913,-119.573935,2020-11-03,116358,2021-06-07 17:08:43 UTC,TESLA,BREWERY_DISTILLERY_WINERY,Free
Pentage Winery - Tesla Destination,4551 Valleyview Rd,Penticton,V2A 8V8,250-493-4008  877-798-3752,24 hours daily,2,,Tesla Destination,49.440156,-119.574801,2020-11-03,116359,2021-06-07 17:08:43 UTC,J1772 TESLA,BREWERY_DISTILLERY_WINERY,Free
Coast Inn of the North - Tesla Destination,770 Brunswick St,Prince George,V2L 2C2,250-563-2131  877-798-3752,24 hours daily; for customer use only,2,,Tesla Destination,53.913566,-122.750396,2020-11-03,116360,2021-06-07 17:08:43 UTC,J1772 TESLA,HOTEL,Free
Princeton Visitor Center - Tesla Destination,169 Bridge St,Princeton,V0X 1W0,250-295-0235  877-798-3752,24 hours daily,3,,Tesla Destination,49.459922,-120.507127,2020-11-03,116362,2021-06-07 17:08:43 UTC,J1772 TESLA,MUNI_GOV,Free
Qualicum Beach Inn - Tesla Destination,2690 Island Hwy W,Qualicum Beach,V9K 1G8,778-734-1035  877-798-3752,24 hours daily; for customer use only; see front desk for access,1,,Tesla Destination,49.355889,-124.438648,2020-11-03,116363,2021-06-07 17:08:43 UTC,TESLA,INN,Free
Ramada Revelstoke - Tesla Destination,1750  Trans-Canada Hwy,Revelstoke,V0E 2S0,250-837-4741  877-798-3752,24 hours daily; for customer use only; see front desk for access,2,,Tesla Destination,51.007859,-118.205719,2020-11-03,116364,2021-06-07 17:08:43 UTC,TESLA,HOTEL,Free
Pacific Gateway Hotel - Tesla Destination,3500 Cessna Dr,Richmond,V7B 1C7,604-278-1241  877-798-3752,24 hours daily; see front desk for access,2,,Tesla Destination,49.191123,-123.140362,2020-11-03,116365,2021-06-07 17:08:43 UTC,TESLA,HOTEL,Free
Aberdeen Centre - Tesla Destination,4151 Hazelbridge Wy,Richmond,V6X 4J7,604-270-1234  877-798-3752,24 hours daily,3,,Tesla Destination,49.183825,-123.133918,2020-11-03,116366,2021-06-07 17:08:43 UTC,TESLA,SHOPPING_CENTER,Free
Natures Path - Tesla Destination,9100 Van Horne Way,Richmond,V6X 1W3,604-248-8777  877-798-3752,24 hours daily; for customer use only; see front desk for access,1,,Tesla Destination,49.194626,-123.124042,2020-11-03,116367,2021-06-07 17:08:43 UTC,TESLA,OFFICE_BLDG,Free
Best Western Plus Abercorn Inn - Tesla Destination,9260 Bridgeport Rd,Richmond,V6X 1S1,604-484-2570  877-798-3752,24 hours daily; for customer use only; see front desk for access,2,,Tesla Destination,49.191672,-123.120766,2020-11-03,116368,2021-06-07 17:08:43 UTC,J1772 TESLA,HOTEL,Free
Discover Rock Creek Society - Tesla Destination,1585 Victoria St,Rock Creek,V0H 1Y0,250-446-2171  877-798-3752,24 hours daily,2,,Tesla Destination,49.056064,-118.99704,2020-11-03,116369,2021-06-07 17:08:43 UTC,J1772 TESLA,OTHER,Free
Village of Salmo Office - Tesla Destination,423 Davies Ave,Salmo,V0G 1Z0,250-357-9433  877-798-3752,24 hours daily,2,,Tesla Destination,49.193589,-117.278056,2020-11-03,116370,2021-06-07 17:08:43 UTC,TESLA,OFFICE_BLDG,Free
Comfort Inn & Suites Salmon Arm - Tesla Destination,1090 22 St NE,Salmon Arm,V1E 2V5,250)-832-7711  877-798-3752,24 hours daily; for customer use only,2,,Tesla Destination,50.708292,-119.258039,2020-11-03,116371,2021-06-07 17:08:43 UTC,J1772 TESLA,HOTEL,Free
Moby's Pub - Tesla Destination,124 Upper Ganges Rd,Salt Spring Island,V8K 2S2,250-537-5559  877-798-3752,24 hours daily,2,,Tesla Destination,48.858535,-123.501429,2020-11-03,116373,2021-06-07 17:08:43 UTC,J1772 TESLA,RESTAURANT,Free
Ciderworks @ Salt Spring Apple Company - Tesla Destination,529 Fulford-Ganges Rd,Salt Spring Island,V8K 2K1,250-537-4935  877-798-3752,24 hours daily; for customer use only,1,,Tesla Destination,48.83717,-123.490199,2020-11-03,116374,2021-06-07 17:08:43 UTC,TESLA,BREWERY_DISTILLERY_WINERY,Free
Tuwanek Hotel and Spa - Tesla Destination,7545 Islet Pl,Sechelt,V0N 3A4,800-665-2311  877-798-3752,24 hours daily; for customer use only; see front desk for access,1,,Tesla Destination,49.545583,-123.762672,2020-11-03,116375,2021-06-07 17:08:43 UTC,TESLA,HOTEL,Free
SummerGate Winery - Tesla Destination,11612 Morrow Ave,Summerland,V0H 1Z8,250-583-9973  877-798-3752,24 hours daily; for customer use only,1,,Tesla Destination,49.595334,-119.705882,2020-11-03,116377,2021-06-07 17:08:43 UTC,TESLA,BREWERY_DISTILLERY_WINERY,Free
Summerland Resort Hotel - Tesla Destination,13011 Lakeshore Dr,Summerland,V0H 1Z1,250-494-8180  877-798-3752,24 hours daily; for customer use only,2,,Tesla Destination,49.601626,-119.653267,2020-11-03,116378,2021-06-07 17:08:43 UTC,J1772 TESLA,HOTEL,Free
Lunessence Winery & Vineyard - Tesla Destination,5716 Gartrell Rd,Summerland,V0H 1Z7,778-516-3131  877-798-3752,24 hours daily; for customer use only,1,,Tesla Destination,49.577638,-119.6548,2020-11-03,116379,2021-06-07 17:08:43 UTC,TESLA,BREWERY_DISTILLERY_WINERY,Free
Dirty Laundry Vineyard - Tesla Destination,7311 Fiske St,Summerland,V0H 1Z2,250-494-8815  877-798-3752,24 hours daily; for customer use only,1,,Tesla Destination,49.566361,-119.664269,2020-11-03,116380,2021-06-07 17:08:43 UTC,TESLA,BREWERY_DISTILLERY_WINERY,Free
Art Knapp Plantland - Tesla Destination,4391 King George Blvd,Surrey,V3S 0L2,604-596-9201  877-798-3752,24 hours daily; for customer use only,3,,Tesla Destination,49.080956,-122.82146,2020-11-03,116381,2021-06-07 17:08:43 UTC,J1772 TESLA,SHOPPING_CENTER,Free
Ninja Sushi - Tesla Destination,4506 Lakelse Ave,Terrace,V8G 1L6,778-634-2104  877-798-3752,24 hours daily; for customer use only,2,,Tesla Destination,54.516466,-128.581887,2020-11-03,116382,2021-06-07 17:08:43 UTC,TESLA,RESTAURANT,Free
Pacific Sands Beach Resort - Tesla Destination,1421 Pacific Rim Hwy,Tofino,V0R 2Z0,800-565-2322  877-798-3752,24 hours daily; see front desk for access,4,,Tesla Destination,49.106053,-125.869513,2020-11-03,116383,2021-06-07 17:08:43 UTC,J1772 TESLA,HOTEL,Free
Wickaninnish Inn - Tesla Destination,500 Osprey Ln,Tofino,V0R 2Z0,250-725-3100  877-798-3752,24 hours daily; for customer use only; see front desk for access,2,,Tesla Destination,49.123956,-125.899235,2020-11-03,116384,2021-06-07 17:08:43 UTC,TESLA,INN,Free
Ocean Village Beach Resort - Tesla Destination,555 Hellesen Dr,Tofino,V0R 2Z0,866-725-3755  877-798-3752,24 hours daily; see front desk for access,3,,Tesla Destination,49.129637,-125.900299,2020-11-03,116385,2021-06-07 17:08:43 UTC,J1772 TESLA,HOTEL,Free
Tofino Resort + Marina - Tesla Destination,643 Campbell St,Tofino,V0R 2Z0,844-680-4184  877-798-3752,24 hours daily; for customer use only; see front desk for access,2,,Tesla Destination,49.14933,-125.895247,2020-11-03,116386,2021-06-07 17:08:43 UTC,TESLA,HOTEL,Free
City of Trail - Trail Memorial Centre - Tesla Destination,1051 Victoria St,Trail,V1R 3T3,250-364-1262  877-798-3752,24 hours daily,3,,Tesla Destination,49.097693,-117.710031,2020-11-03,116387,2021-06-07 17:08:43 UTC,J1772 TESLA,MUNI_GOV,Free
Diamond Parking - Tesla Destination,1030 W Georgia St,Vancouver,V6E 2Y3,604-681-7311  877-798-3752,24 hours daily; pay lot,4,,Tesla Destination,49.284535,-123.122009,2020-11-03,116388,2021-06-07 17:08:43 UTC,TESLA,PAY_GARAGE,Free
Fairmont Pacific Rim - Tesla Destination,1038 Canada Pl,Vancouver,V6C 0B9,866-599-6674  877-798-3752,24 hours daily; for customer use only; see front desk for access,1,,Tesla Destination,49.288019,-123.115751,2020-11-03,116389,2021-06-07 17:08:43 UTC,TESLA,HOTEL,Free
"Shangri-La Hotel, Vancouver - Tesla Destination",1128 W Georgia St,Vancouver,V6E 0A8,604-689-1120  877-798-3752,24 hours daily; for customer use only; see front desk for access,6,,Tesla Destination,49.285762,-123.123947,2020-11-03,116390,2021-06-07 17:08:43 UTC,TESLA,HOTEL,Free
Loden Hotel - Tesla Destination,1177 Melville St,Vancouver,V6E 0A3,604-669-5060  877-798-3752,24 hours daily; for customer use only; see valet for access,6,,Tesla Destination,49.287505,-123.123326,2020-11-03,116391,2021-06-07 17:08:43 UTC,TESLA,HOTEL,Free
Coast Coal Harbour Hotel - Tesla Destination,1180  W Hastings St,Vancouver,V6E 4R5,604-697-0202  877-798-3752,24 hours daily; for customer use only; see valet for access,1,,Tesla Destination,49.288348,-123.122175,2020-11-03,116392,2021-06-07 17:08:43 UTC,TESLA,HOTEL,Free
Jordan's - Tesla Destination,1470 W Broadway,Vancouver,V6H 1H4,604-733-1174  877-798-3752,24 hours daily; for customer use only; see front desk for access,1,,Tesla Destination,49.263263,-123.137416,2020-11-03,116393,2021-06-07 17:08:43 UTC,TESLA,PAY_GARAGE,Free
Times Square Suites Hotel - Tesla Destination,1821 Robson St,Vancouver,V6G 3E4,604-684-2223  877-798-3752,24 hours daily; for customer use only; see front desk for access,2,,Tesla Destination,49.291844,-123.135453,2020-11-03,116394,2021-06-07 17:08:43 UTC,J1772 TESLA,HOTEL,Free
OPUS Hotel Vancouver - Tesla Destination,322 Davie St,Vancouver,V6B 5Z6,604-642-6787  877-798-3752,24 hours daily; for customer use only; see valet for access,2,,Tesla Destination,49.2746,-123.1225,2020-11-03,116395,2021-06-07 17:08:43 UTC,TESLA,HOTEL,Free
The Victorian Hotel - Tesla Destination,514 Homer St,Vancouver,V6B 2V6,877-681-6369  877-798-3752,24 hours daily; for customer use only; see front desk for access,1,,Tesla Destination,49.28233,-123.111833,2020-11-03,116396,2021-06-07 17:08:43 UTC,TESLA,HOTEL,Free
The Fairmont Hotel Vancouver - Tesla Destination,900 W George St,Vancouver,V6C 2W6,604-684-3131  877-798-3752,24 hours daily; for customer use only; see valet for access,2,,Tesla Destination,49.283801,-123.120234,2020-11-03,116398,2021-06-07 17:08:43 UTC,J1772 TESLA,HOTEL,Free
Predator Ridge Resort - Tesla Destination,201 Village Centre Pl,Vernon,v1h 1t2,888-578-6688  877-798-3752,24 hours daily; for customer use only; see front desk for access,3,,Tesla Destination,50.188479,-119.39059,2020-11-03,116399,2021-06-07 17:08:43 UTC,J1772 TESLA,HOTEL,Free
Holiday Inn Express and Suites Vernon - Tesla Destination,4716 34th St,Vernon,V1T5Y9,250-550-7777  877-798-3752,24 hours daily; for customer use only; see front desk for access,2,,Tesla Destination,50.281471,-119.276005,2020-11-03,116400,2021-06-07 17:08:43 UTC,J1772 TESLA,HOTEL,Free
Sparkling Hill Resort - Tesla Destination,888 Sparkling  Pl,Vernon,V1H 2K7,250-275-1556  877-798-3752,24 hours daily; for customer use only,3,,Tesla Destination,50.198116,-119.393276,2020-11-03,116401,2021-06-07 17:08:43 UTC,J1772 TESLA,HOTEL,Free
Oak Bay Beach Hotel - Tesla Destination,1175  Beach Dr,Victoria,V8S 2N2,250-598-4556  877-798-3752,24 hours daily; for customer use only; see front desk for access,2,,Tesla Destination,48.419999,-123.299449,2020-11-03,116402,2021-06-07 17:08:43 UTC,J1772 TESLA,HOTEL,Free
Robin Hood Motel - Tesla Destination,136 E Gorge Rd,Victoria,V9A 1L4,250-388-4302  877-798-3752,24 hours daily; for customer use only; see front desk for access,2,,Tesla Destination,48.443545,-123.384318,2020-11-03,116403,2021-06-07 17:08:43 UTC,TESLA,HOTEL,Free
Coast Victoria Harbourside Hotel & Marina - Tesla Destination,146 Kingston St,Victoria,V8V 1V4,250-360-1211  877-798-3752,24 hours daily; for customer use only,2,,Tesla Destination,48.422072,-123.379661,2020-11-03,116404,2021-06-07 17:08:43 UTC,J1772 TESLA,HOTEL,Free
The Westin Bear Mountain Golf Resort and Spa - Tesla Destination,1999 Country Club Way,Victoria,V9B 6R3,250-391-7160  877-798-3752,24 hours daily; for customer use only; see valet for access,6,,Tesla Destination,48.476968,-123.53152,2020-11-03,116405,2021-06-07 17:08:43 UTC,J1772 TESLA,HOTEL,Free
Comfort Inn & Suites Victoria - Tesla Destination,3020 Blanshard St,Victoria,V8T 5C7,250-382-4400  877-798-3752,24 hours daily; for customer use only,3,,Tesla Destination,48.444265,-123.366516,2020-11-03,116406,2021-06-07 17:08:43 UTC,J1772 TESLA,HOTEL,Free
Capital Park - Tesla Destination,355 Menzies St,Victoria,V8V 3L1,250-475-0338  877-798-3752,24 hours daily,9,,Tesla Destination,48.417978,-123.372237,2020-11-03,116407,2021-06-07 17:08:43 UTC,TESLA,PARK,Free
The Lodge at Weir's Beach - Tesla Destination,5195  William Head Rd,Victoria,V9C 4H5,250-478-5000  877-798-3752,24 hours daily; for customer use only,2,,Tesla Destination,48.351384,-123.545568,2020-11-03,116408,2021-06-07 17:08:43 UTC,J1772 TESLA,HOTEL,Free
Inn at Laurel Point - Tesla Destination,680 Montreal St,Victoria,V8V 1Z8,250-386-8727  877-798-3752,24 hours daily; for customer use only; see front desk for access,2,,Tesla Destination,48.423567,-123.376902,2020-11-03,116409,2021-06-07 17:08:43 UTC,J1772 TESLA,INN,Free
Chateau Victoria Hotel & Suites - Tesla Destination,740 Burdett Ave,Victoria,V8W 1B2,800-663-5891  877-798-3752,24 hours daily; for customer use only; see front desk for access,3,,Tesla Destination,48.422405,-123.364227,2020-11-03,116410,2021-06-07 17:08:43 UTC,J1772 TESLA,HOTEL,Free
The Parkside Hotel & Spa - Tesla Destination,810 Humboldt St,Victoria,V8V 5B1,250-940-1200  877-798-3752,24 hours daily; for customer use only; see front desk for access,4,,Tesla Destination,48.420257,-123.362886,2020-11-03,116411,2021-06-07 17:08:43 UTC,TESLA,HOTEL,Free
Mission Hill Family Estate Winery - Tesla Destination,1730 Mission Hill Rd,West Kelowna,V4T 2T1,250-768-6448  877-798-3752,24 hours daily,2,,Tesla Destination,49.836313,-119.58677,2020-11-03,116412,2021-06-07 17:08:43 UTC,J1772 TESLA,BREWERY_DISTILLERY_WINERY,Free
Cypress Mountain - Tesla Destination,6000 Cypress Bowl Rd,West Vancouver,V7V 3N9,604-926-5612  877-798-3752,24 hours daily; for customer use only,2,,Tesla Destination,49.347904,-123.195861,2020-11-03,116413,2021-06-07 17:08:43 UTC,J1772 TESLA,HOTEL,Free
Aava Whistler Hotel - Tesla Destination,2005 Whistler Wy,Whistler,V0N 1B4,604-932-2522  877-798-3752,24 hours daily; for customer use only,3,,Tesla Destination,50.114063,-122.957647,2020-11-03,116414,2021-06-07 17:08:43 UTC,TESLA,HOTEL,Free
Nita Lake Lodge - Tesla Destination,2131 Lake Placid Rd,Whistler,V0N 1B2,888-755-6482  877-798-3752,24 hours daily; for customer use only,2,,Tesla Destination,50.096267,-122.99534,2020-11-03,116415,2021-06-07 17:08:43 UTC,TESLA,HOTEL,Free
Pan Pacific Whistler Mountainside - Tesla Destination,4320 Sundial Crecent,Whistler,V0N 1B4,604-905-2999  877-798-3752,24 hours daily; for customer use only; see valet for access,1,,Tesla Destination,50.113868,-122.953312,2020-11-03,116416,2021-06-07 17:08:43 UTC,TESLA,HOTEL,Free
Club Intrawest - Whistler - Tesla Destination,4580  Chateau Blvd,Whistler,V0N 1B4,604-938-3030  877-798-3752,24 hours daily; for customer use only; see front desk for access,2,,Tesla Destination,50.117857,-122.946162,2020-11-03,116417,2021-06-07 17:08:43 UTC,J1772 TESLA,HOTEL,Free
Four Seasons Resort & Residences Whistler - Tesla Destination,4591 Blackcomb Way,Whistler,V0N 1B4,888-935-2460  877-798-3752,24 hours daily; for customer use only; see valet for access,2,,Tesla Destination,50.118915,-122.943999,2020-11-03,116418,2021-06-07 17:08:43 UTC,TESLA,HOTEL,Free
Fairmont Chateau Whistler - Parking Level P1 - Tesla Destination,4599 Chateau Blvd,Whistler,V0N 1B4,604-938-8000  877-798-3752,24 hours daily; for customer use only,12,,Tesla Destination,50.116672,-122.946279,2020-11-03,116419,2021-06-07 17:08:43 UTC,J1772 TESLA,HOTEL,Free
The Ocean Promenade Hotel - Tesla Destination,15611 Marine Dr,White Rock,V4B 1E1,604-542-0102  877-798-3752,24 hours daily; for customer use only,3,,Tesla Destination,49.016971,-122.789876,2020-11-03,116420,2021-06-07 17:08:43 UTC,J1772 TESLA,HOTEL,Free
Ryall Park - Tesla Destination,48 1st St SW,Carman,R0G 0J0,204-745-2675  877-798-3752,24 hours daily,2,,Tesla Destination,49.506291,-98.003233,2020-11-03,116421,2021-06-07 17:08:43 UTC,J1772 TESLA,MUNI_GOV,Free
Fort Whyte Alive - Tesla Destination,1961  McCreary Rd,Winnipeg,R3P 2K9,204-989-8355  877-798-3752,24 hours daily,2,,Tesla Destination,49.819251,-97.233649,2020-11-03,116422,2021-06-07 17:08:43 UTC,TESLA,OTHER,Free
Winnipeg Square Parkade - Tesla Destination,299 Fort St,Winnipeg,R3L 2T4,204-284-8561  877-798-3752,24 hours daily,2,,Tesla Destination,49.894112,-97.138751,2020-11-03,116423,2021-06-07 17:08:43 UTC,J1772 TESLA,PAY_GARAGE,Free
Auberge Vue D'La Dune/Dune View Inn - Tesla Destination,589  Route 475,Bouctouche Bay,E4S 4N9,877-743-9893  877-798-3752,24 hours daily; for customer use only; see front desk for access,1,,Tesla Destination,46.485904,-64.689474,2020-11-03,116426,2021-06-07 17:08:43 UTC,TESLA,HOTEL,Free
Ganong Nature Park - Tesla Destination,350 Todd's Point Rd,Dufferin,E3L 3R8,506-467-9905  877-798-3752,24 hours daily,2,,Tesla Destination,45.170956,-67.162669,2020-11-03,116427,2021-06-07 17:08:43 UTC,TESLA,PARK,Free
Four Points by Sheraton Edmundston - Tesla Destination,100 Rice St,Edmundston,E3V 1T4,506-739-7321  877-798-3752,24 hours daily; for customer use only; see front desk for access,3,,Tesla Destination,47.363998,-68.331311,2020-11-03,116428,2021-06-07 17:08:43 UTC,J1772 TESLA,HOTEL,Free
Amsterdam Inn & Suites Fredericton - Tesla Destination,559 Bishop Dr,Fredericton,E3C 2M6,800-468-2828  877-798-3752,24 hours daily; see front desk for access,2,,Tesla Destination,45.94151,-66.673508,2020-11-03,116429,2021-06-07 17:08:43 UTC,J1772 TESLA,HOTEL,Free
The Peak Sunset B&B - Tesla Destination,5041 Route 105,Grafton,E7N 1R8,506-328-4481  877-798-3752,24 hours daily; for customer use only,2,,Tesla Destination,46.169358,-67.563263,2020-11-03,116430,2021-06-07 17:08:43 UTC,TESLA,B_AND_B,Free
Amsterdam Inn & Suites - Moncton - Tesla Destination,2550 Mountain Rd,Moncton,E3C 2M6,506-383-5050  877-798-3752,24 hours daily; see front desk for access,2,,Tesla Destination,46.129625,-64.877721,2020-11-03,116431,2021-06-07 17:08:43 UTC,J1772 TESLA,HOTEL,Free
Residence Inn Moncton - Tesla Destination,600 Main St,Moncton,E1C 0M6,506-854-7100  877-798-3752,24 hours daily; for customer use only; see front desk for access,1,,Tesla Destination,46.08927,-64.773979,2020-11-03,116432,2021-06-07 17:08:43 UTC,TESLA,HOTEL,Free
The Algonquin Resort - Tesla Destination,184 Adolphus St,St. Andrews,E5B 1T7,506-529-8823  877-798-3752,24 hours daily; for customer use only; see front desk for access,2,,Tesla Destination,45.080766,-67.056037,2020-11-03,116433,2021-06-07 17:08:43 UTC,TESLA,HOTEL,Free
Rossmount Inn Hotel Restaurant & Bar - Tesla Destination,4599 Route 127,St Andrews,E5B 3S7,506-529-3351  877-798-3752,24 hours daily; for customer use only; see front desk for access,2,,Tesla Destination,45.122358,-67.079081,2020-11-03,116434,2021-06-07 17:08:43 UTC,J1772 TESLA,HOTEL,Free
Annapolis Royal Town Hall - Tesla Destination,285 St George St,Annapolis Royal,B0S 1A0,902-532-2043  877-798-3752,24 hours daily,2,,Tesla Destination,44.742969,-65.519579,2020-11-03,116435,2021-06-07 17:08:43 UTC,TESLA,MUNI_GOV,Free
Trout Point Lodge of Nova Scotia - Tesla Destination,189 Trout Point Rd,East Kemptville,B5A 5X9,902-761-2142  877-798-3752,24 hours daily; see front desk for access,2,,Tesla Destination,45.687347,-63.47855,2020-11-03,116436,2021-06-07 17:08:43 UTC,J1772 TESLA,HOTEL,Free
Holiday Inn Express Halifax - Bedford - Tesla Destination,980 Parkland Dr,Halifax,B3M 4Y7,902-444-6700  877-798-3752,24 hours daily; for customer use only; see front desk for access,4,,Tesla Destination,44.683195,-63.677,2020-11-03,116437,2021-06-07 17:08:43 UTC,J1772 TESLA,HOTEL,Free
Memory Lane Heritage Village - Tesla Destination,5435 Clan Harbour Rd,Lake Charlotte,B0J 1Y0,902-845-1937  877-798-3752,24 hours daily; for customer use only,1,,Tesla Destination,44.76596,-62.949717,2020-11-03,116438,2021-06-07 17:08:43 UTC,TESLA,OTHER,Free
St. Mark's Place - Tesla Destination,5142 NS-332,Middle LaHave,B4V 3L9,902-298-1292  877-798-3752,24 hours daily,3,,Tesla Destination,44.315859,-64.39287,2020-11-03,116439,2021-06-07 17:08:43 UTC,J1772 TESLA,HOTEL,Free
Collin's Street Parking Lot - Tesla Destination,5 Collins St,Yarmouth,B5A 3C5,902-742-7525  877-798-3752,24 hours daily,1,,Tesla Destination,43.836483,-66.118878,2020-11-03,116440,2021-06-07 17:08:43 UTC,TESLA,MUNI_GOV,Free
Killam Bros. Marina - Tesla Destination,90 Water St,Yarmouth,B5A 1G2,902-742-7525  877-798-3752,24 hours daily,2,,Tesla Destination,43.836176,-66.121884,2020-11-03,116441,2021-06-07 17:08:43 UTC,J1772 TESLA,MUNI_GOV,Free
Hilton Garden Inn Ajax - Tesla Destination,500 Beck Crescent,Ajax,L1Z 1C9,905-686-9400  877-798-3752,24 hours daily; for customer use only,12,,Tesla Destination,43.857847,-79.010638,2020-11-03,116442,2021-06-07 17:08:43 UTC,J1772 TESLA,HOTEL,Free
Homewood Suites by Hilton Ajax - Tesla Destination,600 Beck Crescent,Ajax,L1Z 1C9,905-686-5969  877-798-3752,24 hours daily; for customer use only; see front desk for access,12,,Tesla Destination,43.857239,-79.008143,2020-11-03,116443,2021-06-07 17:08:43 UTC,J1772 TESLA,HOTEL,Free
Desjardins Insurance Agency - Tesla Destination,15342 Yonge St.,Aurora,L4G 1N8,416-333-3088  877-798-3752,24 hours daily; for customer use only; see front desk for access,5,,Tesla Destination,44.002054,-79.468412,2020-11-03,116444,2021-06-07 17:08:43 UTC,J1772 TESLA,OFFICE_BLDG,Free
Aurora Ontario Destination Charging - Tesla Destination,9 Industrial Pkwy S,Aurora,L4G 3V9,905-841-8162  877-798-3752,24 hours daily,1,,Tesla Destination,44.001091,-79.455802,2020-11-03,116445,2021-06-07 17:08:43 UTC,TESLA,SHOPPING_CENTER,Free
Bush's Watersports Park - Tesla Destination,3385 Highway 169,Bala,P0C 1A0,705-762-5722  877-798-3752,24 hours daily; see front desk for access,3,,Tesla Destination,45.036627,-79.626528,2020-11-03,116446,2021-06-07 17:08:43 UTC,J1772 TESLA,PARK,Free
City of Barrie - Collier Street Parkade - Tesla Destination,27 Collier St,Barrie,L4M 1G5,705-726-4242  877-798-3752,24 hours daily; pay lot,24,,Tesla Destination,44.390204,-79.688962,2020-11-03,116447,2021-06-07 17:08:43 UTC,J1772 TESLA,PAY_GARAGE,Free
City of Barrie - Heritage Park (Waterfront Trail) - Tesla Destination,6 Simcoe St,Barrie,L4M 1L6,705-726-4242  877-798-3752,24 hours daily; pay lot,12,,Tesla Destination,44.388818,-79.688663,2020-11-03,116448,2021-06-07 17:08:43 UTC,J1772 TESLA,MUNI_GOV,Free
City of Barrie - Marina Parking Lot - Tesla Destination,6 Toronto St,Barrie,L4M 1L6,705-739-4218  877-798-3752,24 hours daily; pay lot,12,,Tesla Destination,44.385608,-79.6922,2020-11-03,116449,2021-06-07 17:08:43 UTC,J1772 TESLA,MUNI_GOV,Free
City of Barrie - Barrie Public Library - Tesla Destination,60 Worsley St,Barrie,L4M 1L6,705-728-1010  877-798-3752,24 hours daily; pay lot,6,,Tesla Destination,44.391631,-79.688358,2020-11-03,116450,2021-06-07 17:08:43 UTC,J1772 TESLA,MUNI_GOV,Free
Redstone Winery - Tesla Destination,4245 King St,Beamsville,L0R 1B1,905-563-9463  877-798-3752,24 hours daily; for customer use only,6,,Tesla Destination,43.160912,-79.437731,2020-11-03,116451,2021-06-07 17:08:43 UTC,J1772 TESLA,BREWERY_DISTILLERY_WINERY,Free
The Inn at Huff Estates - Tesla Destination,2274 County Rd 1,Bloomfield,K0K 1G0,613-393-1414  877-798-3752,24 hours daily; see front desk for access,2,,Tesla Destination,44.0126,-77.288534,2020-11-03,116452,2021-06-07 17:08:43 UTC,J1772 TESLA,BREWERY_DISTILLERY_WINERY,Free
"Westin Trillium House, Blue Mountain - Tesla Destination",220 Gord Canning Dr,Blue Mountains,L9Y 0V9,705-443-8080  877-798-3752,24 hours daily; for customer use only; see valet for access,6,,Tesla Destination,44.501525,-80.310101,2020-11-03,116453,2021-06-07 17:08:43 UTC,J1772 TESLA,HOTEL,Free
Club Intrawest - Blue Mountain - Tesla Destination,276 Jozo Weider Blvd,Blue Mountains,L9Y 0V2,705-443-4550  877-798-3752,24 hours daily; for customer use only; see front desk for access,2,,Tesla Destination,44.503223,-80.305359,2020-11-03,116454,2021-06-07 17:08:43 UTC,J1772 TESLA,HOTEL,Free
Cowbell Brewing Company - Tesla Destination,40035 Blyth Rd,Blyth,N0M 1H0,519-523-4724  877-798-3752,24 hours daily; for customer use only,5,,Tesla Destination,43.730787,-81.432954,2020-11-03,116455,2021-06-07 17:08:43 UTC,J1772 TESLA,BREWERY_DISTILLERY_WINERY,Free
South Muskoka Curling & Golf Club - Tesla Destination,10 Golf Course Rd,Bracebridge,P1L 1M6,705-645-4221  877-798-3752,24 hours daily; for customer use only,4,,Tesla Destination,45.049948,-79.319314,2020-11-03,116456,2021-06-07 17:08:43 UTC,TESLA,REC_SPORTS_FACILITY,Free
Bramalea City Centre - Tesla Destination,25 Peel Centre Dr,Brampton,L6T 5T9,905-793-4682  877-798-3752,24 hours daily,2,,Tesla Destination,43.713321,-79.721541,2020-11-03,116457,2021-06-07 17:08:43 UTC,J1772 TESLA,SHOPPING_CENTER,Free
Hilton Garden Inn Toronto/Brampton - Tesla Destination,2648 Steeles Ave,Brampton,L6S 6J9,905-595-5151  877-798-3752,24 hours daily; for customer use only; see front desk for access,12,,Tesla Destination,43.722753,-79.672664,2020-11-03,116458,2021-06-07 17:08:43 UTC,J1772 TESLA,HOTEL,Free
Timber House Resort - Tesla Destination,116 Cedardale Rd,Brighton,K0K 1H0,613-475-3304  877-798-3752,24 hours daily,1,,Tesla Destination,44.023651,-77.658625,2020-11-03,116459,2021-06-07 17:08:43 UTC,TESLA,HOTEL,Free
Burlington Convention Centre - Tesla Destination,1120 Burloak Dr,Burlington,L7L 6P8,905-319-0319  877-798-3752,24 hours daily; for customer use only,4,,Tesla Destination,43.397682,-79.761056,2020-11-03,116460,2021-06-07 17:08:43 UTC,TESLA,HOTEL,Free
"Comfort Inn Burlington, ON - Tesla Destination",3290 S Service Rd,Burlington,L7N 3M6,905-639-1700  877-798-3752,24 hours daily; for customer use only,3,,Tesla Destination,43.358872,-79.794554,2020-11-03,116461,2021-06-07 17:08:43 UTC,J1772 TESLA,HOTEL,Free
Langdon Hall Country House Hotel & Spa - Tesla Destination,1 Langdon Dr,Cambridge,N3H 4R8,519-740-2100  877-798-3752,24 hours daily; for customer use only,1,,Tesla Destination,43.380593,-80.373119,2020-11-03,116462,2021-06-07 17:08:43 UTC,TESLA,HOTEL,Free
The Big Apple - Tesla Destination,262 Orchard Dr,Colbourne,K0K 1S0,905-355-2574  877-798-3752,24 hours daily,2,,Tesla Destination,44.021635,-77.904395,2020-11-03,116463,2021-06-07 17:08:43 UTC,J1772 TESLA,RESTAURANT,Free
Living Stone Golf Resort - Tesla Destination,19 Keith Ave,Collingwood,L9Y 4T9,705-532-7388  877-798-3752,24 hours daily; for customer use only; see front desk for access,2,,Tesla Destination,44.509725,-80.241017,2020-11-03,116464,2021-06-07 17:08:43 UTC,TESLA,HOTEL,Free
Harbourtown at McCrackens Landing - Tesla Destination,2281 McCrackens Landing Rd,Douro Dummer,K0L 2H0,705-652-6101  877-798-3752,24 hours daily; for customer use only,2,,Tesla Destination,44.533863,-78.143725,2020-11-03,116465,2021-06-07 17:08:43 UTC,TESLA,OTHER,Free
The Opinicon Dining & Resort - Tesla Destination,1697 Chaffey's Lock Rd,Elgin,K0G 1E0,613-359-5233  877-798-3752,24 hours daily,1,,Tesla Destination,44.578866,-76.318461,2020-11-03,116466,2021-06-07 17:08:43 UTC,TESLA,RESTAURANT,Free
Elora Mill Hotel & Spa - Tesla Destination,77 Mill St W,Elora,N0B 1S0,519-846-8464  877-798-3752,24 hours daily; for customer use only; see front desk for access,5,,Tesla Destination,43.681088,-80.431721,2020-11-03,116467,2021-06-07 17:08:43 UTC,J1772 TESLA,HOTEL,Free
Canadian Appliance Source - Tesla Destination,90 Ronson Dr,Etobicoke,M9W 1B6,416-782-5900  877-798-3752,24 hours daily; for customer use only,3,,Tesla Destination,43.696046,-79.567913,2020-11-03,116468,2021-06-07 17:08:43 UTC,TESLA,SHOPPING_CENTER,Free
Holiday Inn Express Gananoque 1000 Islands - Tesla Destination,777 King St E,Gananoque,K7G 1H1,613-382-8338  877-798-3752,24 hours daily; for customer use only; see front desk for access,2,,Tesla Destination,44.338265,-76.146128,2020-11-03,116469,2021-06-07 17:08:43 UTC,J1772 TESLA,HOTEL,Free
Limerick Lake Lodge and Marina - Tesla Destination,123 Limerick Lodge Rd,Gilmour,K0L 1W0,613-474-2144  877-798-3752,24 hours daily,2,,Tesla Destination,44.87377,-77.65103,2020-11-03,116470,2021-06-07 17:08:43 UTC,TESLA,HOTEL,Free
Samuels Hotel - Tesla Destination,34031 Saltford Rd,Goderich,N7A 3Y1,519-524-1371  877-798-3752,24 hours daily; for customer use only; see front desk for access,3,,Tesla Destination,43.752188,-81.697857,2020-11-03,116471,2021-06-07 17:08:43 UTC,J1772 TESLA,HOTEL,Free
Greystone on Golden Lake - Tesla Destination,144 McNee Dr,Golden Lake,K0J 1X0,613-625-2999  877-798-3752,24 hours daily; for customer use only; see front desk for access,2,,Tesla Destination,45.601574,-77.373042,2020-11-03,116472,2021-06-07 17:08:43 UTC,TESLA,HOTEL,Free
Town of Grand Valley - Tesla Destination,56 Main St N,Grand Valley,L9W 5S6,519-928-5652  877-798-3752,24 hours daily,4,,Tesla Destination,43.900939,-80.316341,2020-11-03,116473,2021-06-07 17:08:43 UTC,J1772 TESLA,MUNI_GOV,Free
Muskoka Bay Resort - Tesla Destination,1217 N Muldrew Lake Rd,Gravenhurst,P1P 1T9,705-687-7900  877-798-3752,24 hours daily; see front desk for access,1,,Tesla Destination,44.909665,-79.398034,2020-11-03,116474,2021-06-07 17:08:43 UTC,TESLA,HOTEL,Free
Indigo Parking - Hamilton Jackson Square - Tesla Destination,110 King St W,Hamilton,L8P 4X1,905-546-1263  877-798-3752,24 hours daily; pay lot,4,,Tesla Destination,43.257819,-79.872185,2020-11-03,116475,2021-06-07 17:08:43 UTC,TESLA,PAY_GARAGE,Free
Homewood Suites by Hilton Hamilton - Tesla Destination,40 Bay St S,Hamilton,L8P 0B3,905-667-1200  877-798-3752,24 hours daily; for customer use only; see front desk for access,4,,Tesla Destination,43.257009,-79.874504,2020-11-03,116477,2021-06-07 17:08:43 UTC,J1772 TESLA,HOTEL,Free
Deja Vu Restaurant & Bar - Tesla Destination,882 Main St E,Hawkesbury,K6A 1B6,613-632-0111  877-798-3752,24 hours daily; for customer use only,3,,Tesla Destination,45.61079,-74.595808,2020-11-03,116478,2021-06-07 17:08:43 UTC,J1772 TESLA,RESTAURANT,Free
Companion Hotel Motel - Tesla Destination,930 Front St,Hearst,P0L 1N0,888-468-9888  877-798-3752,24 hours daily; for customer use only; see front desk for access,2,,Tesla Destination,49.690269,-83.666296,2020-11-03,116479,2021-06-07 17:08:43 UTC,J1772 TESLA,HOTEL,Free
Traynor Family Vineyard - Tesla Destination,1774 Danforth Rd,Hillier,K0K 2J0,877-403-4224  877-798-3752,24 hours daily; for customer use only; see front desk for access,3,,Tesla Destination,43.971462,-77.441256,2020-11-03,116480,2021-06-07 17:08:43 UTC,J1772 TESLA,BREWERY_DISTILLERY_WINERY,Free
Harwood Estate Vineyards and Winery - Tesla Destination,18908 Loyalist Pkwy,Hillier,K0K 2J0,613-399-1631  877-798-3752,24 hours daily; for customer use only; see front desk for access,2,,Tesla Destination,43.976262,-77.473005,2020-11-03,116481,2021-06-07 17:08:43 UTC,J1772 TESLA,BREWERY_DISTILLERY_WINERY,Free
Deerhurst Resort - Tesla Destination,1235 Deerhurst Dr,Huntsville,P1H 2E8,705-789-6411  877-798-3752,24 hours daily; for customer use only,3,,Tesla Destination,45.346743,-79.132226,2020-11-03,116482,2021-06-07 17:08:43 UTC,J1772 TESLA,HOTEL,Free
Elm Hurst Inn & Spa - Tesla Destination,415 Harris St,Ingersoll,N5C 3J8,519-485-5321  877-798-3752,24 hours daily; for customer use only; see front desk for access,4,,Tesla Destination,43.029921,-80.85512,2020-11-03,116483,2021-06-07 17:08:43 UTC,J1772 TESLA,HOTEL,Free
Creekside Estate Winery - Tesla Destination,2170 Fourth Ave,Jordan,L0R 1S0,905-562-0035  877-798-3752,24 hours daily; for customer use only,6,,Tesla Destination,43.153507,-79.331709,2020-11-03,116484,2021-06-07 17:08:43 UTC,J1772 TESLA,BREWERY_DISTILLERY_WINERY,Free
Green Woods Inn - Tesla Destination,1368  Hwy 15,Kingston,K7L 5H6,866-878-1884  877-798-3752,24 hours daily; for customer use only,2,,Tesla Destination,44.276115,-76.444199,2020-11-03,116485,2021-06-07 17:08:43 UTC,TESLA,INN,Free
Queen's University - Tindall Underground Garage - Tesla Destination,142 Union St W,Kingston,K7L 2P3,613-533-2500  877-798-3752,24 hours daily; pay lot,16,,Tesla Destination,44.227016,-76.498262,2020-11-03,116486,2021-06-07 17:08:43 UTC,J1772 TESLA,PAY_GARAGE,Free
Queen's University - Goodes Hall - Tesla Destination,143 Union St W,Kingston,K7L 2P3,613-533-2218  877-798-3752,24 hours daily; pay lot,16,,Tesla Destination,44.228025,-76.497554,2020-11-03,116487,2021-06-07 17:08:43 UTC,J1772 TESLA,PAY_GARAGE,Free
Queen's Athletics & Recreation Centre (ARC) - Tesla Destination,284 Earl St,Kingston,K7L 3N6,613-533-2953  877-798-3752,24 hours daily; pay lot,16,,Tesla Destination,44.229663,-76.494185,2020-11-03,116488,2021-06-07 17:08:43 UTC,J1772 TESLA,PAY_GARAGE,Free
Queen's University - Miller Hall Bruce Wing - Tesla Destination,36 Union St W,Kingston,K7L 2N8,613-533-2000  877-798-3752,24 hours daily; pay lot,8,,Tesla Destination,44.227376,-76.492754,2020-11-03,116489,2021-06-07 17:08:43 UTC,J1772 TESLA,COLLEGE_CAMPUS,Free
Queen's University - Isabel Bader Centre - Tesla Destination,390 King St W,Kingston,K7L 2X4,613-533-6000  877-798-3752,24 hours daily; pay lot,4,,Tesla Destination,44.22141,-76.506686,2020-11-03,116490,2021-06-07 17:08:43 UTC,J1772 TESLA,COLLEGE_CAMPUS,Free
Queen's University - McNeill House - Tesla Destination,40 Lower Albert St,Kingston,K7L 3T8,613-533-2000  877-798-3752,24 hours daily; pay lot,2,,Tesla Destination,44.22296,-76.4995,2020-11-03,116491,2021-06-07 17:08:43 UTC,J1772 TESLA,COLLEGE_CAMPUS,Free
Spearhead Brewing Company - Tesla Destination,675 Development Dr,Kingston,K7M 4W6,613-483-0302  877-798-3752,24 hours daily; for customer use only,4,,Tesla Destination,44.24121,-76.569719,2020-11-03,116492,2021-06-07 17:08:43 UTC,TESLA,BREWERY_DISTILLERY_WINERY,Free
All Suites Whitney Manor - Tesla Destination,8 Starr Pl,Kingston,K7L 4V1,613-549-7222  877-798-3752,24 hours daily; for customer use only; see front desk for access,1,,Tesla Destination,44.249549,-76.403465,2020-11-03,116493,2021-06-07 17:08:43 UTC,TESLA,HOTEL,Free
Fork and Cork Grill - Tesla Destination,1458 Weber St E,Kitchener,N2A 2Y5,519-208-0606  877-798-3752,24 hours daily; for customer use only,2,,Tesla Destination,43.431633,-80.438146,2020-11-03,116494,2021-06-07 17:08:43 UTC,TESLA,RESTAURANT,Free
Best Western Plus Kitchener-Waterloo - Tesla Destination,2899 King St E,Kitchener,N2A 1A6,519-894-3500  877-798-3752,24 hours daily; for customer use only; see front desk for access,2,,Tesla Destination,43.428841,-80.43711,2020-11-03,116495,2021-06-07 17:08:43 UTC,J1772 TESLA,HOTEL,Free
Radisson Hotel Kitchener - Tesla Destination,2960 King St E,Kitchener,N2A 1A9,519-894-9500  877-798-3752,24 hours daily; for customer use only,2,,Tesla Destination,43.429302,-80.433347,2020-11-03,116496,2021-06-07 17:08:43 UTC,TESLA,HOTEL,Free
Township of Leeds - Tesla Destination,1 Jessie St,Lansdowne,K0E 1L0,613-659-2225  877-798-3752,24 hours daily,1,,Tesla Destination,44.408424,-76.022337,2020-11-03,116497,2021-06-07 17:08:43 UTC,TESLA,MUNI_GOV,Free
Freddy's Cocktail Lounge & Restautant - Tesla Destination,655 Point Pelee Dr,Leamington,N8H 3V4,519-325-1257  877-798-3752,24 hours daily; see front desk for access,2,,Tesla Destination,42.007051,-82.568543,2020-11-03,116498,2021-06-07 17:08:43 UTC,TESLA,RESTAURANT,Free
Kacaba Vineyards & Winery - Tesla Destination,3550 King St,Lincoln,L0R 2C0,905-562-5625  877-798-3752,24 hours daily; for customer use only,2,,Tesla Destination,43.15314,-79.401017,2020-11-03,116499,2021-06-07 17:08:43 UTC,J1772 TESLA,BREWERY_DISTILLERY_WINERY,Free
Hidden Bench Estate Winery - Tesla Destination,4152 Locust Ln,Lincoln,L0R 1B0,905-563-8700  877-798-3752,24 hours daily; see front desk for access,1,,Tesla Destination,43.159694,-79.493709,2020-11-03,116500,2021-06-07 17:08:43 UTC,TESLA,BREWERY_DISTILLERY_WINERY,Free
Quality Suites London - Tesla Destination,1120 Dearness Dr,London,N6E 1N9,519-680-1024  877-798-3752,24 hours daily; for customer use only; see front desk for access,4,,Tesla Destination,42.9315,-81.2189,2020-11-03,116501,2021-06-07 17:08:43 UTC,J1772 TESLA,HOTEL,Free
Best Western London Airport Inn & Suites - Tesla Destination,2230 Dundas St,London,N5V 1R5,519-457-1200  877-798-3752,24 hours daily; for customer use only; see front desk for access,4,,Tesla Destination,43.0106,-81.1569,2020-11-03,116502,2021-06-07 17:08:43 UTC,J1772 TESLA,HOTEL,Free
Springbank Medical Centre - Tesla Destination,460 Springbank Drive,London,N6J 1H1,519-657-8952  877-798-3752,24 hours daily; pay lot,16,,Tesla Destination,42.966849,-81.285677,2020-11-03,116503,2021-06-07 17:08:43 UTC,J1772 TESLA,OFFICE_BLDG,Free
Best Western Plus Stoneridge Inn & Conference Centre - Tesla Destination,6675 Burtwistle Ln,London,N6L 1H5,519-652-6022  877-798-3752,24 hours daily; for customer use only,2,,Tesla Destination,42.8507,-81.2759,2020-11-03,116504,2021-06-07 17:08:43 UTC,TESLA,HOTEL,Free
TownePlace Suites London - Tesla Destination,800 Exeter Rd,London,N6E 1L5,519-681-1200  877-798-3752,24 hours daily; for customer use only; see front desk for access,4,,Tesla Destination,42.9273,-81.2156,2020-11-03,116505,2021-06-07 17:08:43 UTC,J1772 TESLA,HOTEL,Free
Gordon Bay Marine - Tesla Destination,55a Hatherley Rd,Mactier,P0C 1H0,705-375-2623  877-798-3752,24 hours daily; see front desk for access,2,,Tesla Destination,45.21267,-79.792088,2020-11-03,116506,2021-06-07 17:08:43 UTC,TESLA,SHOPPING_CENTER,Free
Mansfield Ski Club - Tesla Destination,628213 15 Sideroad,Mansfield,L9V 3M6,705-435-3838  877-798-3752,24 hours daily,4,,Tesla Destination,44.196591,-80.052665,2020-11-03,116507,2021-06-07 17:08:43 UTC,TESLA,REC_SPORTS_FACILITY,Free
Beaver Valley Ski Club - Tesla Destination,100  Pioneer Dr,Markdale,N0C 1H0,519-986-2520  877-798-3752,24 hours daily; available with reservation only; see front desk for access,2,,Tesla Destination,44.357532,-80.544891,2020-11-03,116508,2021-06-07 17:08:43 UTC,J1772 TESLA,OTHER,Free
Homewood Suites by Hilton Markham - Tesla Destination,50 Bodrington Ct,Markham,L6G 0A9,905-477-4663  877-798-3752,24 hours daily; for customer use only,12,,Tesla Destination,43.843315,-79.354425,2020-11-03,116509,2021-06-07 17:08:43 UTC,J1772 TESLA,HOTEL,Free
Hampton Inn & Suites by Hilton Toronto Markham - Tesla Destination,52 Bodrington Ct,Markham,L6G 0A9,905-752-5600  877-798-3752,24 hours daily; for customer use only; see front desk for access,12,,Tesla Destination,43.843095,-79.355352,2020-11-03,116510,2021-06-07 17:08:43 UTC,J1772 TESLA,INN,Free
Hilton Toronto/Markham Suites Conference Centre - Tesla Destination,8500 Warden Ave,Markham,L6G 1A5,905-470-8500  877-798-3752,24 hours daily; for customer use only; see valet for access,5,,Tesla Destination,43.854392,-79.335113,2020-11-03,116511,2021-06-07 17:08:43 UTC,J1772 TESLA,HOTEL,Free
Boshkung Brewing Company - Tesla Destination,9201 Hwy 118,Minden,K0M 1J2,705-489-4554  877-798-3752,24 hours daily; for customer use only,1,,Tesla Destination,45.046559,-78.696961,2020-11-03,116512,2021-06-07 17:08:43 UTC,TESLA,BREWERY_DISTILLERY_WINERY,Free
Park'N Fly Toronto Valet Airport Parking - Tesla Destination,5815 Airport Rd,Mississauga,L4V 1C8,905-677-9143  877-798-3752,24 hours daily; pay lot; see valet for access,10,,Tesla Destination,43.686992,-79.605459,2020-11-03,116513,2021-06-07 17:08:43 UTC,J1772 TESLA,PAY_GARAGE,Free
Hilton Toronto Airport Hotel & Suites - Tesla Destination,5875 Airport Rd,Mississauga,L4V 1N1,905-677-9900  877-798-3752,24 hours daily; for customer use only; see valet for access,12,,Tesla Destination,43.687137,-79.602927,2020-11-03,116514,2021-06-07 17:08:43 UTC,J1772 TESLA,HOTEL,Free
ALT Hotel - Toronto Airport - Tesla Destination,6080 Viscount Rd,Mississauga,L4V 0A1,905-362-4337  877-798-3752,24 hours daily; for customer use only; see front desk for access,1,,Tesla Destination,43.689703,-79.614682,2020-11-03,116515,2021-06-07 17:08:43 UTC,TESLA,HOTEL,Free
Quality Hotel Fallsview Cascade - Tesla Destination,5305 Murray St,Niagara Falls,L2G 3W6,905-354-2796  877-798-3752,24 hours daily; for customer use only; see front desk for access,3,,Tesla Destination,43.084066,-79.081403,2020-11-03,116517,2021-06-07 17:08:43 UTC,J1772 TESLA,HOTEL,Free
Old Stone Inn Boutique Hotel - Tesla Destination,6080 Fallsview Blvd,Niagara Falls,L2G 7L6,800-263-6208  877-798-3752,24 hours daily; for customer use only; see front desk for access,2,,Tesla Destination,43.086781,-79.082934,2020-11-03,116518,2021-06-07 17:08:43 UTC,J1772 TESLA,HOTEL,Free
Niagara Falls Hilton Fallsview South Tower - Tesla Destination,6361 Fallsview Blvd,Niagara Falls,L2G 3V9,905-354-7887  877-798-3752,24 hours daily; for customer use only; see valet for access,3,,Tesla Destination,43.082694,-79.08308,2020-11-03,116519,2021-06-07 17:08:43 UTC,J1772 TESLA,HOTEL,Free
Comfort Inn Fallsview - Tesla Destination,6645 Fallsview Blvd,Niagara Falls,L2G 7G1,905-358-9353  877-798-3752,24 hours daily; for customer use only,2,,Tesla Destination,43.079809,-79.083528,2020-11-03,116520,2021-06-07 17:08:43 UTC,J1772 TESLA,HOTEL,Free
Reif Estate Winery - Tesla Destination,15608 Niagara Pkwy,Niagara-on-the-Lake,L0S 1J0,905-468-9463  877-798-3752,24 hours daily; for customer use only,2,,Tesla Destination,43.217373,-79.061054,2020-11-03,116521,2021-06-07 17:08:43 UTC,J1772 TESLA,BREWERY_DISTILLERY_WINERY,Free
Stratus Vineyards - Tesla Destination,2059 Niagara Stone Rd,Niagara-on-the-Lake,L0S 1J0,905-468-1806  877-798-3752,24 hours daily,2,,Tesla Destination,43.241395,-79.096959,2020-11-03,116522,2021-06-07 17:08:43 UTC,J1772 TESLA,SHOPPING_CENTER,Free
